source,retrieved_at,ranking_scope,ranking_year,openalex_id,ror_id,name,country,country_code,city,latitude,longitude,works_count,open_access_works_count,citations_to_year_works,lifetime_works_count,lifetime_cited_by_count,two_year_mean_citedness,h_index,i10_index,ranking_metric,ranking
openalex,2026-07-19T13:12:59+00:00,overall,2024,https://openalex.org/I86519309,https://ror.org/00hj54h04,The University of Texas at Austin,United States,US,Austin,30.26715,-97.74306,82770,78578,76679,355484,23909344,0.7968723065151713,1210,281733,annual_works_count,1
openalex,2026-07-19T13:12:59+00:00,overall,2024,https://openalex.org/I76198965,https://ror.org/05qpz1x62,Friedrich Schiller University Jena,Germany,DE,Jena,50.92878,11.5899,38836,38025,25743,157368,5555089,1.2989168776196207,606,83659,annual_works_count,2
openalex,2026-07-19T13:12:59+00:00,overall,2024,https://openalex.org/I4210165038,https://ror.org/05qbk4x57,University of Chinese Academy of Sciences,China,CN,Beijing,39.9075,116.39723,38582,20444,402535,384697,30453205,5.977735462135638,907,541479,annual_works_count,3
openalex,2026-07-19T13:12:59+00:00,overall,2024,https://openalex.org/I45129253,https://ror.org/02jx3x895,University College London,United Kingdom,GB,London,51.50853,-0.12574,35369,30262,253373,583087,65779892,5.205234697290668,2066,672034,annual_works_count,4
openalex,2026-07-19T13:12:59+00:00,overall,2024,https://openalex.org/I76130692,https://ror.org/00a2xv884,Zhejiang University,China,CN,Hangzhou,30.29365,120.16142,34646,19279,313322,370767,29522602,5.727982986734534,940,521430,annual_works_count,5
openalex,2026-07-19T13:12:59+00:00,overall,2024,https://openalex.org/I183067930,https://ror.org/0220qvk04,Shanghai Jiao Tong University,China,CN,Shanghai,31.222219467163086,121.45806121826172,34234,18906,309987,366955,28122107,5.734157706564315,878,523688,annual_works_count,6
openalex,2026-07-19T13:12:59+00:00,overall,2024,https://openalex.org/I136199984,https://ror.org/03vek6s52,Harvard University,United States,US,Cambridge,42.3751,-71.10561,33575,25146,347353,704018,143952100,7.261852174527302,2772,1100822,annual_works_count,7
openalex,2026-07-19T13:12:59+00:00,overall,2024,https://openalex.org/I20231570,https://ror.org/02v51f717,Peking University,China,CN,Beijing,39.9075,116.39723,32819,21328,270888,394067,32282882,5.119990598602419,1123,493923,annual_works_count,8
openalex,2026-07-19T13:12:59+00:00,overall,2024,https://openalex.org/I40120149,https://ror.org/052gg0110,University of Oxford,United Kingdom,GB,Oxford,51.75222,-1.25596,32118,27697,212832,595350,63481881,4.676979520012395,2073,566731,annual_works_count,9
openalex,2026-07-19T13:12:59+00:00,overall,2024,https://openalex.org/I157773358,https://ror.org/0064kty71,Sun Yat-sen University,China,CN,Guangzhou,23.11667,113.25,30550,19332,247586,303692,25314245,4.808857121102524,919,462516,annual_works_count,10
openalex,2026-07-19T13:12:59+00:00,overall,2024,https://openalex.org/I185261750,https://ror.org/03dbr7087,University of Toronto,Canada,CA,Toronto,43.70643,-79.39864,29964,22488,212967,553930,58615111,4.394456194033209,1782,654321,annual_works_count,11
openalex,2026-07-19T13:12:59+00:00,overall,2024,https://openalex.org/I99065089,https://ror.org/03cve4549,Tsinghua University,China,CN,Beijing,39.9075,116.39723,29445,13871,318511,376649,33405366,6.725398874236517,1179,471531,annual_works_count,12
openalex,2026-07-19T13:12:59+00:00,overall,2024,https://openalex.org/I157614274,https://ror.org/03p74gp79,University of Cape Town,South Africa,ZA,Rondebosch,-33.96333,18.47639,28979,27917,39822,333371,7542420,0.7844094835305625,698,105915,annual_works_count,13
openalex,2026-07-19T13:12:59+00:00,overall,2024,https://openalex.org/I17974374,https://ror.org/036rp1748,Universidade de São Paulo,Brazil,BR,São Paulo,-23.5475,-46.63611,27845,22539,82157,474131,22740583,2.0249407184337906,868,447122,annual_works_count,14
openalex,2026-07-19T13:12:59+00:00,overall,2024,https://openalex.org/I32971472,https://ror.org/03v76x132,Yale University,United States,US,New Haven,41.30815,-72.92816,27639,22152,144548,410957,51905473,2.5765744997265276,1801,473897,annual_works_count,15
openalex,2026-07-19T13:12:59+00:00,overall,2024,https://openalex.org/I24185976,https://ror.org/011ashp19,Sichuan University,China,CN,Chengdu,30.66667,104.06667,26438,15922,225554,264073,19963020,5.376935198094574,712,409766,annual_works_count,16
openalex,2026-07-19T13:12:59+00:00,overall,2024,https://openalex.org/I145311948,https://ror.org/00za53h95,Johns Hopkins University,United States,US,Baltimore,39.29038,-76.61219,25785,19138,183952,498008,76723169,4.172519280619556,2262,707517,annual_works_count,17
openalex,2026-07-19T13:12:59+00:00,overall,2024,https://openalex.org/I97018004,https://ror.org/00f54p054,Stanford University,United States,US,Stanford,37.42411,-122.16608,25676,19041,241552,528279,87451954,6.412806063072928,2487,664384,annual_works_count,18
openalex,2026-07-19T13:12:59+00:00,overall,2024,https://openalex.org/I139660479,https://ror.org/00f1zfq44,Central South University,China,CN,Changsha,28.19874,112.97087,25215,14190,233005,254990,18803405,5.703746147467889,716,385430,annual_works_count,19
openalex,2026-07-19T13:12:59+00:00,overall,2024,https://openalex.org/I926574661,https://ror.org/03s7gtk40,Leipzig University,Germany,DE,Leipzig,51.33962,12.37129,24596,23740,30583,128586,6372717,1.256500247819855,690,96310,annual_works_count,20
openalex,2026-07-19T13:12:59+00:00,overall,2024,https://openalex.org/I27837315,https://ror.org/00jmfr291,University of Michigan,United States,US,Ann Arbor,42.27756,-83.74088,24340,17363,152287,982294,66404268,3.632245289118788,2081,678777,annual_works_count,21
openalex,2026-07-19T13:12:59+00:00,overall,2024,https://openalex.org/I47508984,https://ror.org/041kmwe10,Imperial College London,United Kingdom,GB,London,51.50853,-0.12574,23334,19614,166538,387396,42109070,6.499100243463533,1551,459919,annual_works_count,22
openalex,2026-07-19T13:12:59+00:00,overall,2024,https://openalex.org/I201448701,https://ror.org/00cvxb145,University of Washington,United States,US,Seattle,47.60621,-122.33207,23216,17942,181406,521857,94951274,47.07223154717407,3592,602568,annual_works_count,23
openalex,2026-07-19T13:12:59+00:00,overall,2024,https://openalex.org/I205783295,https://ror.org/05bnh6r87,Cornell University,United States,US,Ithaca,42.44063,-76.49661,23136,17408,156609,472548,56587649,4.98713538098223,1853,558377,annual_works_count,24
openalex,2026-07-19T13:12:59+00:00,overall,2024,https://openalex.org/I39804081,https://ror.org/02en5vm52,Sorbonne Université,France,FR,Paris,48.85341,2.3488,22892,17663,126438,396106,36791438,4.023153352557971,1483,455550,annual_works_count,25
openalex,2026-07-19T13:12:59+00:00,overall,2024,https://openalex.org/I47720641,https://ror.org/00p991c53,Huazhong University of Science and Technology,China,CN,Wuhan,30.58333,114.26667,22788,12325,207039,265561,23789539,5.58811763130268,901,414493,annual_works_count,26
openalex,2026-07-19T13:12:59+00:00,overall,2024,https://openalex.org/I24943067,https://ror.org/013q1eq08,Fudan University,China,CN,Shanghai,31.22222,121.45806,22392,14296,188840,242348,20199741,5.18851306377673,858,347197,annual_works_count,27
openalex,2026-07-19T13:12:59+00:00,overall,2024,https://openalex.org/I165779595,https://ror.org/01ej9dk98,The University of Melbourne,Australia,AU,Melbourne,-37.814,144.96332,22366,18231,139053,345056,30804922,4.07334254365532,1272,386279,annual_works_count,28
openalex,2026-07-19T13:12:59+00:00,overall,2024,https://openalex.org/I161318765,https://ror.org/046rm7j60,"University of California, Los Angeles",United States,US,Los Angeles,34.05223,-118.24368,21819,17635,125362,415301,51834662,4.234418793821452,1641,521189,annual_works_count,29
openalex,2026-07-19T13:12:59+00:00,overall,2024,https://openalex.org/I114027177,https://ror.org/0130frc33,University of North Carolina at Chapel Hill,United States,US,Chapel Hill,35.9132,-79.05584,21738,18203,85402,354825,34837517,2.209221948888934,1593,346430,annual_works_count,30
openalex,2026-07-19T13:12:59+00:00,overall,2024,https://openalex.org/I241749,https://ror.org/013meh722,University of Cambridge,United Kingdom,GB,Cambridge,52.2,0.11667,21537,17929,169838,447911,53821365,6.170220088166369,1824,488293,annual_works_count,31
openalex,2026-07-19T13:12:59+00:00,overall,2024,https://openalex.org/I189158943,https://ror.org/00wjc7c48,University of Milan,Italy,IT,Milan,45.464271545410156,9.189510345458984,21293,19021,75730,378908,18549988,0.3570443958866507,941,280357,annual_works_count,32
openalex,2026-07-19T13:12:59+00:00,overall,2024,https://openalex.org/I28022161,https://ror.org/02f81g417,King Saud University,Saudi Arabia,SA,Riyadh,24.68773,46.72185,21268,13908,189358,148513,6371727,5.266167969202642,474,134081,annual_works_count,33
openalex,2026-07-19T13:12:59+00:00,overall,2024,https://openalex.org/I200296433,https://ror.org/02drdmm93,Chinese Academy of Medical Sciences & Peking Union Medical College,China,CN,Beijing,39.9075,116.39723,20598,14934,147261,197255,17542720,4.259007526968453,1025,289052,annual_works_count,34
openalex,2026-07-19T13:12:59+00:00,overall,2024,https://openalex.org/I124055696,https://ror.org/035b05819,University of Copenhagen,Denmark,DK,Copenhagen,55.67594,12.56553,19807,17592,113275,288984,27081072,4.158431784053697,1234,327996,annual_works_count,35
openalex,2026-07-19T13:12:59+00:00,overall,2024,https://openalex.org/I141945490,https://ror.org/03rmrcq20,University of British Columbia,Canada,CA,Vancouver,49.24966,-123.11934,19185,14484,119859,374948,32396043,3.164244344880341,1334,390770,annual_works_count,36
openalex,2026-07-19T13:12:59+00:00,overall,2024,https://openalex.org/I74801974,https://ror.org/057zh3y96,The University of Tokyo,Japan,JP,Tokyo,35.68949890136719,139.69171142578125,19162,14193,114571,508159,46787117,4.046595919875026,1389,645707,annual_works_count,37
openalex,2026-07-19T13:12:59+00:00,overall,2024,https://openalex.org/I87445476,https://ror.org/017zhmm22,Xi'an Jiaotong University,China,CN,Xi'an,34.25833,108.92861,19153,7766,178202,204731,13232257,5.48902252929484,643,267722,annual_works_count,38
openalex,2026-07-19T13:12:59+00:00,overall,2024,https://openalex.org/I129604602,https://ror.org/0384j8v12,The University of Sydney,Australia,AU,Sydney,-33.86785,151.20732,19130,14629,131572,334397,26953302,4.803487245113999,1277,357174,annual_works_count,39
openalex,2026-07-19T13:12:59+00:00,overall,2024,https://openalex.org/I37461747,https://ror.org/033vjfk17,Wuhan University,China,CN,Wuhan,30.583330154418945,114.26667022705078,19123,10865,161921,226910,17220916,5.067294085554021,869,297477,annual_works_count,40
openalex,2026-07-19T13:12:59+00:00,overall,2024,https://openalex.org/I126520041,https://ror.org/04c4dkn09,University of Science and Technology of China,China,CN,Hefei,31.86389,117.28083,18911,8704,200764,208179,23035230,6.394567072928659,973,354238,annual_works_count,41
openalex,2026-07-19T13:12:59+00:00,overall,2024,https://openalex.org/I204730241,https://ror.org/05f82e368,Université Paris Cité,France,FR,Paris,48.85341,2.3488,18898,14327,120345,360939,40443958,5.051326962192878,1670,462414,annual_works_count,42
openalex,2026-07-19T13:12:59+00:00,overall,2024,https://openalex.org/I277688954,https://ror.org/03xjwb503,Université Paris-Saclay,France,FR,Gif-sur-Yvette,48.68333,2.13333,18841,14923,104513,167000,15041769,3.780933195168081,1109,206700,annual_works_count,43
openalex,2026-07-19T13:12:59+00:00,overall,2024,https://openalex.org/I56590836,https://ror.org/02bfwt286,Monash University,Australia,AU,Melbourne,-37.814,144.96332,18833,15057,130559,283351,21685128,4.53849311694354,1086,285028,annual_works_count,44
openalex,2026-07-19T13:12:59+00:00,overall,2024,https://openalex.org/I116953780,https://ror.org/03rc6as71,Tongji University,China,CN,Shanghai,31.222219467163086,121.45806121826172,18778,9489,156976,191854,10666670,5.044627688227738,592,204294,annual_works_count,45
openalex,2026-07-19T13:12:59+00:00,overall,2024,https://openalex.org/I154099455,https://ror.org/0207yh398,Shandong University,China,CN,Jinan,36.66833,116.99722,18476,9898,155285,199814,14636920,5.248358226303249,591,297527,annual_works_count,46
openalex,2026-07-19T13:12:59+00:00,overall,2024,https://openalex.org/I36258959,https://ror.org/0168r3w48,University of California San Diego,United States,US,San Diego,32.71571,-117.16472,18464,14246,135307,355659,50660392,4.046826724113496,1742,462468,annual_works_count,47
openalex,2026-07-19T13:12:59+00:00,overall,2024,https://openalex.org/I204983213,https://ror.org/01yqg2h08,Harbin Institute of Technology,China,CN,Harbin,45.75,126.6500015258789,18437,6215,181973,223089,14258110,5.805072455360769,612,284969,annual_works_count,48
openalex,2026-07-19T13:12:59+00:00,overall,2024,https://openalex.org/I889458895,https://ror.org/02zhqgq86,University of Hong Kong,Hong Kong,HK,Pok Fu Lam,22.26861,114.12924,18190,12712,162121,230607,22031918,5.034821762297575,1166,273730,annual_works_count,49
openalex,2026-07-19T13:12:59+00:00,overall,2024,https://openalex.org/I165932596,https://ror.org/01tgyzw49,National University of Singapore,Singapore,SG,Singapore,1.28967,103.85007,17790,10874,181139,279431,24968185,6.511523493025125,1090,324075,annual_works_count,50
openalex,2026-07-19T13:12:59+00:00,overall,2024,https://openalex.org/I33213144,https://ror.org/02y3ad647,University of Florida,United States,US,Gainesville,29.65163,-82.32483,17635,12624,88215,361820,30684309,3.0850378442836086,1250,413550,annual_works_count,51
openalex,2026-07-19T13:12:59+00:00,overall,2024,https://openalex.org/I139264467,https://ror.org/04h9pn542,Seoul National University,South Korea,KR,Seoul,37.566,126.9784,17477,13524,88409,243952,21397017,3.7929394297654726,970,357252,annual_works_count,52
openalex,2026-07-19T13:12:59+00:00,overall,2024,https://openalex.org/I99464096,https://ror.org/05f950310,KU Leuven,Belgium,BE,Leuven,50.87959,4.70093,17030,14185,111450,309364,29046987,3.787423467687415,1309,377206,annual_works_count,53
openalex,2026-07-19T13:12:59+00:00,overall,2024,https://openalex.org/I79576946,https://ror.org/00b30xv10,University of Pennsylvania,United States,US,Philadelphia,39.95238,-75.16362,16876,11775,147871,381274,54895634,6.083752294994767,1747,536105,annual_works_count,54
openalex,2026-07-19T13:12:59+00:00,overall,2024,https://openalex.org/I183935753,https://ror.org/0220mzb33,King's College London,United Kingdom,GB,London,51.50853,-0.12574,16785,13945,108231,260530,22819015,3.8004042500297244,1242,245530,annual_works_count,55
openalex,2026-07-19T13:12:59+00:00,overall,2024,https://openalex.org/I78577930,https://ror.org/00hj8s172,Columbia University,United States,US,New York,40.71427,-74.00597,16654,12517,121113,387006,47447981,4.804211308061117,1723,440176,annual_works_count,56
openalex,2026-07-19T13:12:59+00:00,overall,2024,https://openalex.org/I4432739,https://ror.org/03zga2b32,University of Bergen,Norway,NO,Bergen,60.39299,5.32415,16611,15972,30938,211873,9248128,1.874098649243373,762,122270,annual_works_count,57
openalex,2026-07-19T13:12:59+00:00,overall,2024,https://openalex.org/I8204097,https://ror.org/05591te55,Ludwig-Maximilians-Universität München,Germany,DE,Munich,48.13743,11.57549,16512,13747,100627,276934,28969699,3.7339217719379265,1142,351744,annual_works_count,58
openalex,2026-07-19T13:12:59+00:00,overall,2024,https://openalex.org/I95457486,https://ror.org/01an7q238,"University of California, Berkeley",United States,US,Berkeley,37.87159,-122.27275,16378,13603,117041,450823,56370727,3.917210196023128,1876,493915,annual_works_count,59
openalex,2026-07-19T13:12:59+00:00,overall,2024,https://openalex.org/I165143802,https://ror.org/00rqy9422,The University of Queensland,Australia,AU,Brisbane,-27.46794,153.02809,16160,12581,117520,277859,27442707,4.631732633991537,1466,311498,annual_works_count,60
openalex,2026-07-19T13:12:59+00:00,overall,2024,https://openalex.org/I899635006,https://ror.org/02rx3b187,Université Grenoble Alpes,France,FR,Saint-Martin-d'Hères,45.1787,5.76281,16091,13011,49992,162549,11009857,1.9940156912977343,805,162699,annual_works_count,61
openalex,2026-07-19T13:12:59+00:00,overall,2024,https://openalex.org/I31746571,https://ror.org/03r8z3t63,UNSW Sydney,Australia,AU,Sydney,-33.86785,151.20732,15995,12115,127381,273345,20091565,5.193142302307727,1041,279584,annual_works_count,62
openalex,2026-07-19T13:12:59+00:00,overall,2024,https://openalex.org/I180670191,https://ror.org/043mz5j54,"University of California, San Francisco",United States,US,San Francisco,37.77493,-122.41942,15967,12517,122519,298021,49215559,4.9805782292272065,1703,439937,annual_works_count,63
openalex,2026-07-19T13:12:59+00:00,overall,2024,https://openalex.org/I861853513,https://ror.org/02be6w209,Sapienza University of Rome,Italy,IT,Rome,41.89193,12.51133,15835,12421,86996,252236,20493540,3.607031635714557,1089,314496,annual_works_count,64
openalex,2026-07-19T13:12:59+00:00,overall,2024,https://openalex.org/I98677209,https://ror.org/01nrxwf90,University of Edinburgh,United Kingdom,GB,Edinburgh,55.95206,-3.19648,15707,13731,97045,281716,26147137,4.104933838251937,1330,282167,annual_works_count,65
openalex,2026-07-19T13:12:59+00:00,overall,2024,https://openalex.org/I76569877,https://ror.org/04ct4d772,Southeast University,China,CN,Nanjing,32.06167,118.77778,15623,4829,152455,160039,9398587,5.4626872808415685,594,185310,annual_works_count,66
openalex,2026-07-19T13:12:59+00:00,overall,2024,https://openalex.org/I223822909,https://ror.org/038t36y30,Heidelberg University,Germany,DE,Heidelberg,49.40768,8.69079,15540,12681,103971,318927,42678021,4.168912002271488,1602,480279,annual_works_count,67
openalex,2026-07-19T13:12:59+00:00,overall,2024,https://openalex.org/I28407311,https://ror.org/027m9bs27,University of Manchester,United Kingdom,GB,Manchester,53.48095,-2.23743,15539,12931,100922,314397,28928493,3.8099037831847262,1237,354156,annual_works_count,68
openalex,2026-07-19T13:12:59+00:00,overall,2024,https://openalex.org/I135310074,https://ror.org/01y2jtd41,University of Wisconsin–Madison,United States,US,Madison,43.07305,-89.40123,15415,11309,101648,374723,43268106,3.7869131781340313,1424,502850,annual_works_count,69
openalex,2026-07-19T13:12:59+00:00,overall,2024,https://openalex.org/I40347166,https://ror.org/024mw5h28,University of Chicago,United States,US,Chicago,41.85003,-87.65005,15228,11738,92653,309299,34694409,4.2597475771917965,1635,322432,annual_works_count,70
openalex,2026-07-19T13:12:59+00:00,overall,2024,https://openalex.org/I85461943,https://ror.org/0034me914,Saveetha University,India,IN,Chennai,13.08784,80.27847,15186,6519,118918,61475,875024,4.332003445618171,236,19549,annual_works_count,71
openalex,2026-07-19T13:12:59+00:00,overall,2024,https://openalex.org/I8961855,https://ror.org/01tmp8f25,Universidad Nacional Autónoma de México,Mexico,MX,Mexico City,19.42847,-99.12766,15115,12871,41534,250256,9121305,2.0736477048311737,642,165925,annual_works_count,72
openalex,2026-07-19T13:12:59+00:00,overall,2024,https://openalex.org/I57206974,https://ror.org/0190ak572,New York University,United States,US,New York,40.71427,-74.00597,15104,11020,88686,276763,26848678,3.86483404214878,1382,269726,annual_works_count,73
openalex,2026-07-19T13:12:59+00:00,overall,2024,https://openalex.org/I62916508,https://ror.org/02kkvpp62,Technical University of Munich,Germany,DE,Munich,48.13743,11.57549,15059,11994,105271,227478,18818406,3.916105262134601,1021,261561,annual_works_count,74
openalex,2026-07-19T13:12:59+00:00,overall,2024,https://openalex.org/I170897317,https://ror.org/00py81415,Duke University,United States,US,Durham,35.99403,-78.89862,15057,11169,91133,269429,29879170,3.570359454765539,1408,306598,annual_works_count,75
openalex,2026-07-19T13:12:59+00:00,overall,2024,https://openalex.org/I5023651,https://ror.org/01pxwe438,McGill University,Canada,CA,Montreal,45.50884,-73.58781,15043,11560,90530,296965,27391298,3.9382953152983315,1225,331459,annual_works_count,76
openalex,2026-07-19T13:12:59+00:00,overall,2024,https://openalex.org/I35440088,https://ror.org/05a28rw58,ETH Zurich,Switzerland,CH,Zurich,47.36667,8.55,14978,12911,111608,247076,26965222,3.6387697457893085,1171,317739,annual_works_count,77
openalex,2026-07-19T13:12:59+00:00,overall,2024,https://openalex.org/I181391015,https://ror.org/04wffgt70,Universidade Estadual de Campinas (UNICAMP),Brazil,BR,Campinas,-22.90556,-47.06083,14941,12396,36033,209310,8249330,1.8429191099686721,572,167263,annual_works_count,78
openalex,2026-07-19T13:12:59+00:00,overall,2024,https://openalex.org/I52357470,https://ror.org/00rs6vg23,The Ohio State University,United States,US,Columbus,39.96118,-82.99879,14867,10588,84380,371774,29161773,3.4034351062213832,1190,379866,annual_works_count,79
openalex,2026-07-19T13:12:59+00:00,overall,2024,https://openalex.org/I219193219,https://ror.org/02dqehb95,Purdue University West Lafayette,United States,US,West Lafayette,40.42587,-86.90807,14829,10931,62143,286275,20484825,3.0010843373493974,945,287695,annual_works_count,80
openalex,2026-07-19T13:12:59+00:00,overall,2024,https://openalex.org/I194450716,https://ror.org/00js3aw79,Jilin University,China,CN,Changchun,43.88,125.32278,14791,7774,143977,183721,14611481,5.684822286263208,625,302556,annual_works_count,81
openalex,2026-07-19T13:12:59+00:00,overall,2024,https://openalex.org/I162868743,https://ror.org/012tb2g32,Tianjin University,China,CN,Tianjin,39.14221954345703,117.17666625976562,14639,5740,144369,170526,12502116,5.912798779198018,611,237664,annual_works_count,82
openalex,2026-07-19T13:12:59+00:00,overall,2024,https://openalex.org/I158842170,https://ror.org/023rhb549,Chongqing University,China,CN,Chongqing,29.56026,106.55771,14319,6101,140664,141594,8290334,5.707342963170543,483,170280,annual_works_count,83
openalex,2026-07-19T13:12:59+00:00,overall,2024,https://openalex.org/I9360294,https://ror.org/01111rn36,University of Bologna,Italy,IT,Bologna,44.49381,11.33875,14152,11877,77195,221955,18621835,3.087850805721528,901,293211,annual_works_count,84
openalex,2026-07-19T13:12:59+00:00,overall,2024,https://openalex.org/I28166907,https://ror.org/056d84691,Karolinska Institutet,Sweden,SE,Stockholm,59.32938,18.06871,14119,12625,91477,234193,30470334,3.8604790784760663,1451,354320,annual_works_count,85
openalex,2026-07-19T13:12:59+00:00,overall,2024,https://openalex.org/I183519381,https://ror.org/013xs5b60,Capital Medical University,China,CN,Beijing,39.9075,116.39723,14050,10873,77550,133771,8226868,3.3846943516117913,627,172828,annual_works_count,86
openalex,2026-07-19T13:12:59+00:00,overall,2024,https://openalex.org/I170201317,https://ror.org/01an3r305,University of Pittsburgh,United States,US,Pittsburgh,40.44062,-79.99589,14013,10566,91861,296645,33961227,3.748410063181123,1331,386473,annual_works_count,87
openalex,2026-07-19T13:12:59+00:00,overall,2024,https://openalex.org/I204337017,https://ror.org/01aj84f44,Aarhus University,Denmark,DK,Aarhus,56.15674,10.21076,13967,11262,71431,226308,12845634,3.2993979836077463,863,178040,annual_works_count,88
openalex,2026-07-19T13:12:59+00:00,overall,2024,https://openalex.org/I887968799,https://ror.org/04xfq0f34,RWTH Aachen University,Germany,DE,Aachen,50.77664,6.08342,13914,11739,61989,192785,17454871,2.447912844223728,893,250381,annual_works_count,89
openalex,2026-07-19T13:12:59+00:00,overall,2024,https://openalex.org/I146655781,https://ror.org/04xs57h96,University of Liverpool,United Kingdom,GB,Liverpool,53.41058,-2.97794,13893,11579,71748,221764,17889532,3.733303605554848,1082,242188,annual_works_count,90
openalex,2026-07-19T13:12:59+00:00,overall,2024,https://openalex.org/I125839683,https://ror.org/01skt4w74,Beijing Institute of Technology,China,CN,Beijing,39.9075,116.39723,13886,4768,132118,139169,7897477,5.588825735670737,579,148456,annual_works_count,91
openalex,2026-07-19T13:12:59+00:00,overall,2024,https://openalex.org/I91045830,https://ror.org/01f5ytq51,Texas A&M University,United States,US,College Station,30.62798,-96.33441,13859,10138,69200,244674,18809698,3.4292551641857303,1042,272389,annual_works_count,92
openalex,2026-07-19T13:12:59+00:00,overall,2024,https://openalex.org/I150229711,https://ror.org/04qr3zq92,University of Electronic Science and Technology of China,China,CN,Chengdu,30.666669845581055,104.0666732788086,13837,5701,115045,144548,7601726,4.588519536782471,520,147190,annual_works_count,93
openalex,2026-07-19T13:12:59+00:00,overall,2024,https://openalex.org/I204465549,https://ror.org/01yc7t268,Washington University in St. Louis,United States,US,St Louis,38.62727,-90.19789,13746,10354,92471,255440,40417977,4.332501559575795,1855,323360,annual_works_count,94
openalex,2026-07-19T13:12:59+00:00,overall,2024,https://openalex.org/I881766915,https://ror.org/01rxvg760,Nanjing University,China,CN,Nanjing,32.061668395996094,118.77777862548828,13722,7483,135249,186538,16918515,6.152674060834578,829,282079,annual_works_count,95
openalex,2026-07-19T13:12:59+00:00,overall,2024,https://openalex.org/I159176309,https://ror.org/00g30e956,Universität Hamburg,Germany,DE,Hamburg,53.55073,9.99302,13616,11012,75988,225077,20424329,3.682725002256793,1032,277910,annual_works_count,96
openalex,2026-07-19T13:12:59+00:00,overall,2024,https://openalex.org/I130769515,https://ror.org/04p491231,Pennsylvania State University,United States,US,State College,40.79339,-77.86,13600,9440,80412,335116,27586539,4.082826031038326,1262,327269,annual_works_count,97
openalex,2026-07-19T13:12:59+00:00,overall,2024,https://openalex.org/I102335020,https://ror.org/04t3en479,Karlsruhe Institute of Technology,Germany,DE,Karlsruhe,49.00937,8.40444,13474,11561,50188,167509,11314234,2.8895738271667706,751,179541,annual_works_count,98
openalex,2026-07-19T13:12:59+00:00,overall,2024,https://openalex.org/I63966007,https://ror.org/042nb2s44,Massachusetts Institute of Technology,United States,US,Cambridge,42.3751,-71.10561,13358,10417,123428,348171,64828785,7.0150534958945014,2261,477360,annual_works_count,99
openalex,2026-07-19T13:12:59+00:00,overall,2024,https://openalex.org/I150468666,https://ror.org/03czfpz43,Emory University,United States,US,Atlanta,33.749000549316406,-84.38797760009766,13342,9618,82907,227743,23571400,3.16907238491492,1194,263825,annual_works_count,100
openalex,2026-07-19T13:12:59+00:00,overall,2024,https://openalex.org/I154425047,https://ror.org/0160cpw27,University of Alberta,Canada,CA,Edmonton,53.55014,-113.46871,13333,9333,84473,264841,21052129,3.727471798274718,1071,296269,annual_works_count,101
openalex,2026-07-19T13:12:59+00:00,overall,2024,https://openalex.org/I138689650,https://ror.org/00240q980,University of Padua,Italy,IT,Padua,45.40797,11.88586,13330,10612,83090,212706,19804648,3.3260692402885517,1123,287239,annual_works_count,102
openalex,2026-07-19T13:12:59+00:00,overall,2024,https://openalex.org/I133731052,https://ror.org/040af2s02,University of Helsinki,Finland,FI,Helsinki,60.16952,24.93545,13314,11866,72655,221579,21675313,3.0656081006171547,1168,267717,annual_works_count,103
openalex,2026-07-19T13:12:59+00:00,overall,2024,https://openalex.org/I157725225,https://ror.org/047426m28,University of Illinois Urbana-Champaign,United States,US,Urbana,40.11059,-88.20727,13264,9128,82999,332385,32469877,3.693807146099475,1391,380540,annual_works_count,104
openalex,2026-07-19T13:12:59+00:00,overall,2024,https://openalex.org/I38877650,https://ror.org/04ypx8c21,Zhengzhou University,China,CN,Zhengzhou,34.75777816772461,113.64861297607422,13191,7139,129183,120823,7323411,5.675632477494065,490,153246,annual_works_count,105
openalex,2026-07-19T13:12:59+00:00,overall,2024,https://openalex.org/I285663978,https://ror.org/02xwsbr93,Weatherford College,United States,US,Weatherford,32.74093246459961,-97.79269409179688,13163,12210,5308,162031,1740980,0.2528082952721886,367,28176,annual_works_count,106
openalex,2026-07-19T13:12:59+00:00,overall,2024,https://openalex.org/I90610280,https://ror.org/0530pts50,South China University of Technology,China,CN,Guangzhou,23.116670608520508,113.25,13159,5052,141248,153929,11332997,6.161630065655422,582,201752,annual_works_count,107
openalex,2026-07-19T13:12:59+00:00,overall,2024,https://openalex.org/I87216513,https://ror.org/05hs6h993,Michigan State University,United States,US,East Lansing,42.73698,-84.48387,13003,9941,60479,247979,20006042,2.663454155524372,1072,257632,annual_works_count,108
openalex,2026-07-19T13:12:59+00:00,overall,2024,https://openalex.org/I14243506,https://ror.org/0030zas98,Hong Kong Polytechnic University,Hong Kong,HK,Hong Kong,22.27832,114.17469,12991,6435,151648,153729,9350859,6.873054647177022,654,147035,annual_works_count,109
openalex,2026-07-19T13:12:59+00:00,overall,2024,https://openalex.org/I887064364,https://ror.org/04dkp9463,University of Amsterdam,The Netherlands,NL,Amsterdam,52.37403,4.88969,12933,12068,83561,237373,25420232,3.80303831073856,1154,313063,annual_works_count,110
openalex,2026-07-19T13:12:59+00:00,overall,2024,https://openalex.org/I1174212,https://ror.org/03taz7m60,University of Southern California,United States,US,Los Angeles,34.05223,-118.24368,12750,8814,85330,274157,27886014,3.772486630657678,1461,306296,annual_works_count,111
openalex,2026-07-19T13:12:59+00:00,overall,2024,https://openalex.org/I879563668,https://ror.org/00987cb86,Universidade Estadual Paulista (Unesp),Brazil,BR,São Paulo,-23.5475,-46.63611,12693,11867,30069,206632,7196143,1.6440605387466714,451,169281,annual_works_count,112
openalex,2026-07-19T13:12:59+00:00,overall,2024,https://openalex.org/I84218800,https://ror.org/05rrcem69,"University of California, Davis",United States,US,Davis,38.54491,-121.74052,12665,9869,79997,300016,29676386,3.3377497153503777,1214,377904,annual_works_count,113
openalex,2026-07-19T13:12:59+00:00,overall,2024,https://openalex.org/I57093077,https://ror.org/031rekg67,Swinburne University of Technology,Australia,AU,Melbourne,-37.814,144.96332,12652,11664,48317,68889,2965283,4.1373763146431015,506,41161,annual_works_count,114
openalex,2026-07-19T13:12:59+00:00,overall,2024,https://openalex.org/I187531555,https://ror.org/012a77v79,Lund University,Sweden,SE,Lund,55.705841064453125,13.193209648132324,12640,10929,70328,235413,22224211,3.362402620640295,1076,303881,annual_works_count,115
openalex,2026-07-19T13:12:59+00:00,overall,2024,https://openalex.org/I82880672,https://ror.org/00wk2mp56,Beihang University,China,CN,Beijing,39.9075,116.39723,12494,4586,111465,151649,7798303,5.141982339915618,562,153356,annual_works_count,116
openalex,2026-07-19T13:12:59+00:00,overall,2024,https://openalex.org/I193662353,https://ror.org/04pp8hn57,Utrecht University,The Netherlands,NL,Utrecht,52.09083,5.12222,12440,11484,78670,237233,20467721,4.1822454947713315,1089,254417,annual_works_count,117
openalex,2026-07-19T13:12:59+00:00,overall,2024,https://openalex.org/I17145004,https://ror.org/01y0j0j86,Northwestern Polytechnical University,China,CN,Xi'an,34.258331298828125,108.9286117553711,12431,4314,135503,138058,7510841,7.001729458133459,493,155369,annual_works_count,118
openalex,2026-07-19T13:12:59+00:00,overall,2024,https://openalex.org/I202697423,https://ror.org/02crff812,University of Zurich,Switzerland,CH,Zurich,47.36667,8.55,12376,10844,88892,202737,20809448,7.405176876617774,1115,253164,annual_works_count,119
openalex,2026-07-19T13:12:59+00:00,overall,2024,https://openalex.org/I184942183,https://ror.org/01xtthb56,University of Oslo,Norway,NO,Oslo,59.91273,10.74609,12250,10849,58435,189841,15755479,3.004359581966217,998,207474,annual_works_count,120
openalex,2026-07-19T13:12:59+00:00,overall,2024,https://openalex.org/I177725633,https://ror.org/00t33hh48,Chinese University of Hong Kong,Hong Kong,HK,Hong Kong,22.27832,114.17469,12184,8047,116707,197855,17663371,3.300959780621572,1106,226403,annual_works_count,121
openalex,2026-07-19T13:12:59+00:00,overall,2024,https://openalex.org/I172675005,https://ror.org/02e7b5302,Nanyang Technological University,Singapore,SG,Singapore,1.28967,103.85007,12155,5994,143640,194507,17615215,6.807464273748306,968,225509,annual_works_count,122
openalex,2026-07-19T13:12:59+00:00,overall,2024,https://openalex.org/I82951845,https://ror.org/04ttjf776,RMIT University,Australia,AU,Melbourne,-37.80674743652344,144.9625701904297,12028,10203,53966,84550,4180114,4.242383936564778,490,69849,annual_works_count,123
openalex,2026-07-19T13:12:59+00:00,overall,2024,https://openalex.org/I180726961,https://ror.org/01vy4gh70,Shenzhen University,China,CN,Shenzhen,22.54553985595703,114.06829833984375,12019,5847,124194,95964,5902122,5.993525275898897,511,108866,annual_works_count,124
openalex,2026-07-19T13:12:59+00:00,overall,2024,https://openalex.org/I22299242,https://ror.org/02kpeqv85,Kyoto University,Japan,JP,Kyoto,35.02107,135.75385,11960,8732,61863,359337,30242719,2.9801716484166914,1119,449634,annual_works_count,125
openalex,2026-07-19T13:12:59+00:00,overall,2024,https://openalex.org/I122140584,https://ror.org/03490as77,Universidade Federal do Rio de Janeiro,Brazil,BR,Rio de Janeiro,-22.90642,-43.18223,11820,9503,28686,178884,7915918,1.865178612128303,575,148135,annual_works_count,126
openalex,2026-07-19T13:12:59+00:00,overall,2024,https://openalex.org/I27357992,https://ror.org/023hj5876,Dalian University of Technology,China,CN,Dalian,38.9122200012207,121.60221862792969,11815,4358,108415,139037,9536394,5.155046081892796,569,185653,annual_works_count,127
openalex,2026-07-19T13:12:59+00:00,overall,2024,https://openalex.org/I19894307,https://ror.org/051escj72,Université de Montpellier,France,FR,Montpellier,43.61093,3.87635,11813,9655,53662,143493,9730490,3.0789169246162023,753,147509,annual_works_count,128
openalex,2026-07-19T13:12:59+00:00,overall,2024,https://openalex.org/I3923682,https://ror.org/05t8y2r12,Soochow University,China,CN,Suzhou,31.30408,120.59538,11744,6624,110222,124473,11144687,5.5550695857677415,638,202276,annual_works_count,129
openalex,2026-07-19T13:12:59+00:00,overall,2024,https://openalex.org/I193775966,https://ror.org/01wjejq96,Yonsei University,South Korea,KR,Seoul,37.566,126.9784,11735,7959,87681,180136,13420787,3.9606467694615404,687,255213,annual_works_count,130
openalex,2026-07-19T13:12:59+00:00,overall,2024,https://openalex.org/I79619799,https://ror.org/03angcq70,University of Birmingham,United Kingdom,GB,Birmingham,52.48142,-1.89983,11640,9691,79923,217722,22931678,4.815741018284589,1194,258008,annual_works_count,131
openalex,2026-07-19T13:12:59+00:00,overall,2024,https://openalex.org/I19880235,https://ror.org/010pmpe69,Lomonosov Moscow State University,Russia,RU,Moscow,55.75222,37.61556,11616,6967,27372,203955,9103042,1.5683474787818272,723,159116,annual_works_count,132
openalex,2026-07-19T13:12:59+00:00,overall,2024,https://openalex.org/I71999127,https://ror.org/021018s57,Universitat de Barcelona,Spain,ES,Barcelona,41.38879,2.15899,11599,9792,70525,190771,16857557,3.556009980953506,998,232557,annual_works_count,133
openalex,2026-07-19T13:12:59+00:00,overall,2024,https://openalex.org/I100532134,https://ror.org/029brtt94,Université Claude Bernard Lyon 1,France,FR,Villeurbanne,45.76601,4.8795,11584,8120,55738,210401,17833033,3.33592175826901,987,262159,annual_works_count,134
openalex,2026-07-19T13:12:59+00:00,overall,2024,https://openalex.org/I123387679,https://ror.org/048a87296,Uppsala University,Sweden,SE,Uppsala,59.85882,17.63889,11571,10319,62317,204466,18205731,3.3276890484847574,1038,235293,annual_works_count,135
openalex,2026-07-19T13:12:59+00:00,overall,2024,https://openalex.org/I145872427,https://ror.org/016xsfp80,Radboud University Nijmegen,The Netherlands,NL,Nijmegen,51.8425,5.85278,11552,10482,72919,207306,24959519,3.9364504095477053,1254,299972,annual_works_count,136
openalex,2026-07-19T13:12:59+00:00,overall,2024,https://openalex.org/I25254941,https://ror.org/022k4wk35,Beijing Normal University,China,CN,Beijing,39.9075,116.39723,11526,7018,82760,119253,6653434,4.651783585125335,587,118736,annual_works_count,137
openalex,2026-07-19T13:12:59+00:00,overall,2024,https://openalex.org/I130238516,https://ror.org/017zqws13,University of Minnesota,United States,US,Minneapolis,44.97997,-93.26384,11400,7665,76776,336910,36841491,3.956076199463301,1400,432605,annual_works_count,138
openalex,2026-07-19T13:12:59+00:00,overall,2024,https://openalex.org/I145487455,https://ror.org/03q21mh05,Cairo University,Egypt,EG,Giza,30.027599334716797,31.210140228271484,11362,8551,52156,132396,3700306,2.6106156083373726,536,83229,annual_works_count,139
openalex,2026-07-19T13:12:59+00:00,overall,2024,https://openalex.org/I83519826,https://ror.org/059gcgy73,Nanjing Medical University,China,CN,Nanjing,32.061668395996094,118.77777862548828,11304,8544,69995,108703,8352116,4.064008861454566,530,173535,annual_works_count,140
openalex,2026-07-19T13:12:59+00:00,overall,2024,https://openalex.org/I36234482,https://ror.org/0524sp257,University of Bristol,United Kingdom,GB,Bristol,51.45523,-2.59665,11299,9798,65512,215481,21630291,3.236909050805088,1175,236961,annual_works_count,141
openalex,2026-07-19T13:12:59+00:00,overall,2024,https://openalex.org/I121748325,https://ror.org/02p0gd045,Universidad Complutense de Madrid,Spain,ES,Madrid,40.4165,-3.70256,11234,9581,38241,166161,8013733,2.432962596175821,611,144640,annual_works_count,142
openalex,2026-07-19T13:12:59+00:00,overall,2024,https://openalex.org/I204778367,https://ror.org/05xg72x27,Norwegian University of Science and Technology,Norway,NO,Trondheim,63.43049,10.39506,11165,8882,51837,137629,7621519,2.595283314891579,721,116453,annual_works_count,143
openalex,2026-07-19T13:12:59+00:00,overall,2024,https://openalex.org/I4210148414,https://ror.org/03yp20v68,Institut Agama Islam Negeri Bengkulu,Indonesia,ID,Bengkulu,-3.8004400730133057,102.26554107666016,11152,11023,6412,67197,250292,0.3023437771672984,96,5289,annual_works_count,144
openalex,2026-07-19T13:12:59+00:00,overall,2024,https://openalex.org/I111979921,https://ror.org/000e0be47,Northwestern University,United States,US,Evanston,42.04114,-87.69006,11122,7282,106610,261171,35825079,5.645611912027781,1444,374081,annual_works_count,145
openalex,2026-07-19T13:12:59+00:00,overall,2024,https://openalex.org/I138006243,https://ror.org/03m2x1q45,University of Arizona,United States,US,Tucson,32.22174,-110.92648,11094,7555,68656,260639,23010707,3.900458570524984,1271,269005,annual_works_count,146
openalex,2026-07-19T13:12:59+00:00,overall,2024,https://openalex.org/I223532165,https://ror.org/03r0ha626,University of Utah,United States,US,Salt Lake City,40.76078,-111.89105,11093,7600,66538,221126,20589479,3.1053965902778766,1116,245463,annual_works_count,147
openalex,2026-07-19T13:12:59+00:00,overall,2024,https://openalex.org/I102322142,https://ror.org/05vt9qd57,"Rutgers, The State University of New Jersey",United States,US,New Brunswick,40.48622,-74.45182,11012,7527,67790,251736,21543872,3.6161238489586554,1136,272581,annual_works_count,148
openalex,2026-07-19T13:12:59+00:00,overall,2024,https://openalex.org/I7882870,https://ror.org/00vtgdb53,University of Glasgow,United Kingdom,GB,Glasgow,55.86515,-4.25763,11004,9636,71404,193634,23342341,4.665662276341949,1458,223629,annual_works_count,149
openalex,2026-07-19T13:12:59+00:00,overall,2024,https://openalex.org/I191208505,https://ror.org/00mcjh785,Xiamen University,China,CN,Xiamen,24.47978973388672,118.08187103271484,10909,5817,101150,119505,9578038,6.076970086505737,659,165589,annual_works_count,150
openalex,2026-07-19T13:12:59+00:00,overall,2024,https://openalex.org/I98704320,https://ror.org/04a9tmd77,Icahn School of Medicine at Mount Sinai,United States,US,New York,40.71427,-74.00597,10876,7844,82004,155576,19650499,4.581050796812749,1230,190470,annual_works_count,151
openalex,2026-07-19T13:12:59+00:00,overall,2024,https://openalex.org/I168635309,https://ror.org/03yjb2x39,University of Calgary,Canada,CA,Calgary,51.05011,-114.08529,10817,7679,62110,197881,14501347,3.72959784620562,917,200021,annual_works_count,152
openalex,2026-07-19T13:12:59+00:00,overall,2024,https://openalex.org/I4387152961,https://ror.org/016zwj547,Vishwakarma University,India,,Pune,18.519569396972656,73.8553466796875,10773,10678,712,11542,10226,0.06909157375251325,46,248,annual_works_count,153
openalex,2026-07-19T13:12:59+00:00,overall,2024,https://openalex.org/I118564535,https://ror.org/02k7v4d05,University of Bern,Switzerland,CH,Bern,46.94809,7.44744,10628,9324,61344,154678,14268933,3.6307525717379536,911,183970,annual_works_count,154
openalex,2026-07-19T13:12:59+00:00,overall,2024,https://openalex.org/I98358874,https://ror.org/02e2c7k09,Delft University of Technology,The Netherlands,NL,Delft,52.00667,4.35556,10627,8460,59652,175218,10973786,3.2313322853212814,794,162870,annual_works_count,155
openalex,2026-07-19T13:12:59+00:00,overall,2024,https://openalex.org/I21491767,https://ror.org/035xkbk20,Aix-Marseille Université,France,FR,Marseille,43.29695,5.38107,10611,8455,41373,145909,11261056,2.3100762676073834,792,156772,annual_works_count,156
openalex,2026-07-19T13:12:59+00:00,overall,2024,https://openalex.org/I157674565,https://ror.org/00afp2z80,University of Liège,Belgium,BE,Liège,50.633731842041016,5.567490100860596,10605,7436,25022,267598,8151728,1.9902309678319727,882,117427,annual_works_count,157
openalex,2026-07-19T13:12:59+00:00,overall,2024,https://openalex.org/I141596103,https://ror.org/01c27hj86,University of Lisbon,Portugal,PT,Lisbon,38.72509,-9.1498,10501,8449,59290,150921,7974232,3.3683117360536716,612,137797,annual_works_count,158
openalex,2026-07-19T13:12:59+00:00,overall,2024,https://openalex.org/I205237279,https://ror.org/01y1kjr75,Nankai University,China,CN,Tianjin,39.14221954345703,117.17666625976562,10460,5627,101413,115542,10046923,6.1834729536946655,672,168934,annual_works_count,159
openalex,2026-07-19T13:12:59+00:00,overall,2024,https://openalex.org/I29617571,https://ror.org/0116zj450,University of Indonesia,Indonesia,ID,Depok,-6.4,106.81861,10380,9198,19407,92542,1402558,1.2301416487311678,262,28885,annual_works_count,160
openalex,2026-07-19T13:12:59+00:00,overall,2024,https://openalex.org/I97188460,https://ror.org/03gnr7b55,Nantes Université,France,FR,Nantes,47.21725,-1.55336,10377,7697,23988,106520,4365111,1.6476534566352796,534,68539,annual_works_count,161
openalex,2026-07-19T13:12:59+00:00,overall,2024,https://openalex.org/I130442723,https://ror.org/041yk2d64,Universidade Federal do Rio Grande do Sul,Brazil,BR,Porto Alegre,-30.03283,-51.23019,10349,8381,29272,176134,6789743,1.752053116100404,547,138011,annual_works_count,162
openalex,2026-07-19T13:12:59+00:00,overall,2024,https://openalex.org/I115592961,https://ror.org/03jc41j30,Jiangsu University,China,CN,Zhenjiang,32.21086120605469,119.455078125,10341,5170,114906,97042,7174239,7.025450667329337,452,146586,annual_works_count,163
openalex,2026-07-19T13:12:59+00:00,overall,2024,https://openalex.org/I52158045,https://ror.org/04v3ywz14,China Agricultural University,China,CN,Beijing,39.907501220703125,116.39723205566406,10309,7438,76108,98073,9000318,5.1261258363355635,572,162035,annual_works_count,164
openalex,2026-07-19T13:12:59+00:00,overall,2024,https://openalex.org/I865915315,https://ror.org/008xxew50,Vrije Universiteit Amsterdam,The Netherlands,NL,Amsterdam,52.37403,4.88969,10306,9685,59482,135511,11651723,3.7363231493869473,945,136664,annual_works_count,165
openalex,2026-07-19T13:12:59+00:00,overall,2024,https://openalex.org/I182534213,https://ror.org/043pwc612,Universidade do Porto,Portugal,PT,Porto,41.1485,-8.61097,10287,8471,54484,148769,8155171,3.2416456211812625,616,145757,annual_works_count,166
openalex,2026-07-19T13:12:59+00:00,overall,2024,https://openalex.org/I55732556,https://ror.org/03efmqc40,Arizona State University,United States,US,Tempe,33.41477,-111.90931,10279,6822,56080,194930,13999422,3.5700136612021858,968,167119,annual_works_count,167
openalex,2026-07-19T13:12:59+00:00,overall,2024,https://openalex.org/I98251732,https://ror.org/02fa3aq29,McMaster University,Canada,CA,Hamilton,43.25011,-79.84963,10272,7738,60515,182590,18268287,3.9017803055798614,1183,201546,annual_works_count,168
openalex,2026-07-19T13:12:59+00:00,overall,2024,https://openalex.org/I169381384,https://ror.org/012p63287,University of Groningen,The Netherlands,NL,Groningen,53.21917,6.56667,10258,9697,71976,182172,20375313,4.467348600148656,1262,247709,annual_works_count,169
openalex,2026-07-19T13:12:59+00:00,overall,2024,https://openalex.org/I58200834,https://ror.org/01vjw4z39,Southern Medical University,China,CN,Guangzhou,23.116670608520508,113.25,10186,7837,75810,87936,6274566,4.897855798657973,492,126336,annual_works_count,170
openalex,2026-07-19T13:12:59+00:00,overall,2024,https://openalex.org/I76214153,https://ror.org/01mkqqe32,Lanzhou University,China,CN,Lanzhou,36.057010650634766,103.8398666381836,10099,6076,73991,107667,7591403,3.9562570658318115,514,154923,annual_works_count,171
openalex,2026-07-19T13:12:59+00:00,overall,2024,https://openalex.org/I71267560,https://ror.org/05290cv24,University of Naples Federico II,Italy,IT,Naples,40.85216,14.26811,10066,7571,62840,151511,12331579,3.633992258777993,734,208420,annual_works_count,172
openalex,2026-07-19T13:12:59+00:00,overall,2024,https://openalex.org/I66946132,https://ror.org/047s2c258,"University of Maryland, College Park",United States,US,College Park,38.98067,-76.93692,10047,7246,62813,242408,24244177,4.020886724756535,1344,254919,annual_works_count,173
openalex,2026-07-19T13:12:59+00:00,overall,2024,https://openalex.org/I204250578,https://ror.org/04gyf1771,"University of California, Irvine",United States,US,Irvine,33.66946,-117.82311,10038,7523,62251,192782,20250362,3.9548951811357194,1135,228846,annual_works_count,174
openalex,2026-07-19T13:12:59+00:00,overall,2024,https://openalex.org/I130828816,https://ror.org/024mrxd33,University of Leeds,United Kingdom,GB,Leeds,53.79648,-1.54785,10035,8395,58693,195765,13854929,3.2439456913272373,938,180960,annual_works_count,175
openalex,2026-07-19T13:12:59+00:00,overall,2024,https://openalex.org/I24027795,https://ror.org/04z6c2n17,University of Johannesburg,South Africa,ZA,Johannesburg,-26.20227,28.04363,10017,7833,49515,111348,1926680,3.5358362754384456,350,36772,annual_works_count,176
openalex,2026-07-19T13:12:59+00:00,overall,2024,https://openalex.org/I110200422,https://ror.org/0176yjw32,Universidade Federal de Minas Gerais,Brazil,BR,Belo Horizonte,-19.871904373168945,-43.96624755859375,9996,7875,25485,142711,5916613,1.843350724450403,496,123546,annual_works_count,177
openalex,2026-07-19T13:12:59+00:00,overall,2024,https://openalex.org/I876193797,https://ror.org/00qzypv28,Vellore Institute of Technology University,India,IN,Vellore,12.9184,79.13255,9786,4493,64707,74786,2161812,3.5859104671280275,343,45171,annual_works_count,178
openalex,2026-07-19T13:12:59+00:00,overall,2024,https://openalex.org/I129877168,https://ror.org/033n9gh91,Carl von Ossietzky Universität Oldenburg,Germany,DE,Oldenburg,53.14118,8.21467,9727,9197,10159,48723,1681382,0.9015555919436712,399,27614,annual_works_count,179
openalex,2026-07-19T13:12:59+00:00,overall,2024,https://openalex.org/I55143463,https://ror.org/048tbm396,University of Turin,Italy,IT,Turin,45.07049,7.68682,9720,7810,55887,144323,11634426,3.235053908751726,759,186543,annual_works_count,180
openalex,2026-07-19T13:12:59+00:00,overall,2024,https://openalex.org/I201537933,https://ror.org/01dq60k83,Tohoku University,Japan,JP,Sendai,38.26667,140.86667,9652,7019,52532,278485,18880281,3.0846823502008966,867,341304,annual_works_count,181
openalex,2026-07-19T13:12:59+00:00,overall,2024,https://openalex.org/I126596746,https://ror.org/03bqmcz70,Jagiellonian University,Poland,PL,Krakow,50.061431884765625,19.936580657958984,9651,9021,36915,123474,5107928,2.6099770591931266,534,97800,annual_works_count,182
openalex,2026-07-19T13:12:59+00:00,overall,2024,https://openalex.org/I21250087,https://ror.org/024d6js02,Charles University,Czechia,CZ,Prague,50.08804,14.42076,9640,7922,45204,148933,9186432,2.7786082169074118,676,164966,annual_works_count,183
openalex,2026-07-19T13:12:59+00:00,overall,2024,https://openalex.org/I108688024,https://ror.org/021cj6z65,Qingdao University,China,CN,Qingdao,36.06488037109375,120.38041687011719,9567,5667,85263,85727,4980720,5.271030815470489,443,103366,annual_works_count,184
openalex,2026-07-19T13:12:59+00:00,overall,2024,https://openalex.org/I178232147,https://ror.org/02wmsc916,Guizhou University,China,CN,Guiyang,26.420438766479492,106.67110443115234,9564,6338,62212,64830,1872063,4.145032815714762,252,49765,annual_works_count,185
openalex,2026-07-19T13:12:59+00:00,overall,2024,https://openalex.org/I881427289,https://ror.org/01tm6cn81,University of Gothenburg,Sweden,SE,Gothenburg,57.70716,11.96679,9546,8457,60089,145345,12757020,3.5524551831644584,913,165654,annual_works_count,186
openalex,2026-07-19T13:12:59+00:00,overall,2024,https://openalex.org/I123044942,https://ror.org/052g8jq94,Universitat Autònoma de Barcelona,Spain,ES,Cerdanyola del Vallès,41.4910888671875,2.1407899856567383,9532,8009,55724,159455,12598880,3.541238598175708,779,185083,annual_works_count,187
openalex,2026-07-19T13:12:59+00:00,overall,2024,https://openalex.org/I91136226,https://ror.org/05krs5044,University of Sheffield,United Kingdom,GB,Sheffield,53.38297,-1.4659,9512,7843,53430,191037,15837359,3.725893885877264,983,199988,annual_works_count,188
openalex,2026-07-19T13:12:59+00:00,overall,2024,https://openalex.org/I34352273,https://ror.org/02jz4aj89,Maastricht University,The Netherlands,NL,Maastricht,50.84833,5.68889,9492,8197,48575,128406,11362281,3.3429904535072135,846,140528,annual_works_count,189
openalex,2026-07-19T13:12:59+00:00,overall,2024,https://openalex.org/I23923803,https://ror.org/03yghzc09,University of Exeter,United Kingdom,GB,Exeter,50.72359848022461,-3.527509927749634,9442,8093,61858,117984,7480551,4.059573361082206,800,88841,annual_works_count,190
openalex,2026-07-19T13:12:59+00:00,overall,2024,https://openalex.org/I181547552,https://ror.org/02pttbw34,Baylor College of Medicine,United States,US,Houston,29.76328,-95.36327,9435,6858,57448,165112,27499413,4.060609038937212,1447,236696,annual_works_count,191
openalex,2026-07-19T13:12:59+00:00,overall,2024,https://openalex.org/I98285908,https://ror.org/035t8zc32,The University of Osaka,Japan,JP,Osaka,34.69379,135.50107,9432,6811,53472,289147,25697759,3.1927394315739193,1096,405640,annual_works_count,192
openalex,2026-07-19T13:12:59+00:00,overall,2024,https://openalex.org/I16391192,https://ror.org/04mhzgx49,Tel Aviv University,Israel,IL,Tel Aviv,32.08088,34.78057,9397,6933,55816,206138,17236328,3.5006612940201385,920,255879,annual_works_count,193
openalex,2026-07-19T13:12:59+00:00,overall,2024,https://openalex.org/I153718931,https://ror.org/03c4mmv16,University of Ottawa,Canada,CA,Ottawa,45.41117,-75.69812,9340,6804,56705,165534,12210160,3.3156128612393485,859,157280,annual_works_count,194
openalex,2026-07-19T13:12:59+00:00,overall,2024,https://openalex.org/I16609230,https://ror.org/05htk5m33,Hunan University,China,CN,Changsha,28.19874,112.97087,9332,3673,108493,99803,10101721,6.804087206632345,662,153382,annual_works_count,195
openalex,2026-07-19T13:12:59+00:00,overall,2024,https://openalex.org/I32597200,https://ror.org/00cv9y106,Ghent University,Belgium,BE,Ghent,51.05,3.71667,9320,7755,69620,169316,16575038,4.4357803913144656,912,238787,annual_works_count,196
openalex,2026-07-19T13:12:59+00:00,overall,2024,https://openalex.org/I859038795,https://ror.org/02smfhw86,Virginia Tech,United States,US,Blacksburg,37.22957,-80.41394,9320,6770,40461,170631,10436299,2.6036982812217966,794,162025,annual_works_count,196
openalex,2026-07-19T13:12:59+00:00,overall,2024,https://openalex.org/I92403157,https://ror.org/02egmk993,University of Science and Technology Beijing,China,CN,Beijing,39.907501220703125,116.39723205566406,9295,3572,91101,100949,6371213,5.801905747320043,484,129312,annual_works_count,198
openalex,2026-07-19T13:12:59+00:00,overall,2024,https://openalex.org/I3045169105,https://ror.org/049tv2d57,Southern University of Science and Technology,China,CN,Shenzhen,22.54554,114.0683,9262,4911,103946,62631,4231087,7.182526148249204,540,72030,annual_works_count,199
openalex,2026-07-19T13:12:59+00:00,overall,2024,https://openalex.org/I913481162,https://ror.org/04qw24q55,Wageningen University & Research,The Netherlands,NL,Wageningen,51.97,5.66667,9251,9120,56852,125819,12402808,3.4955050143266475,931,148942,annual_works_count,200
openalex,2026-07-19T13:12:59+00:00,overall,2024,https://openalex.org/I107720978,https://ror.org/00cb9w016,Ain Shams University,Egypt,EG,Cairo,30.07691192626953,31.290681838989258,9216,6508,33545,88659,1946552,2.211495850892818,288,45995,annual_works_count,201
openalex,2026-07-19T13:12:59+00:00,overall,2024,https://openalex.org/I145286018,https://ror.org/050113w36,SRM Institute of Science and Technology,India,IN,Chennai,12.82361125946045,80.0441665649414,9143,3202,51370,50247,1045064,2.8741343959147354,241,24488,annual_works_count,202
openalex,2026-07-19T13:12:59+00:00,overall,2024,https://openalex.org/I168719708,https://ror.org/03q8dnn23,City University of Hong Kong,Hong Kong,HK,Hong Kong,22.2783203125,114.17469024658203,9138,4665,118624,116454,8025038,8.9722812115793,650,119016,annual_works_count,203
openalex,2026-07-19T13:12:59+00:00,overall,2024,https://openalex.org/I90183372,https://ror.org/04vfs2w97,Université de Lorraine,France,FR,Nancy,48.68439,6.18496,9132,6350,34964,163070,4271677,2.588860423190056,477,78690,annual_works_count,204
openalex,2026-07-19T13:12:59+00:00,overall,2024,https://openalex.org/I173304897,https://ror.org/04njjy449,Universidad de Granada,Spain,ES,Granada,37.18817,-3.60667,9117,7955,37276,122165,6817728,2.5367728486743535,578,117694,annual_works_count,205
openalex,2026-07-19T13:12:59+00:00,overall,2024,https://openalex.org/I111088046,https://ror.org/05qwgg493,Boston University,United States,US,Boston,42.35843,-71.05977,9059,6391,66271,199141,24715024,4.147522053534244,1356,250088,annual_works_count,206
openalex,2026-07-19T13:12:59+00:00,overall,2024,https://openalex.org/I113940042,https://ror.org/006teas31,Shanghai University,China,CN,Shanghai,31.222219467163086,121.45806121826172,9043,3734,82756,100583,5149467,5.770225607127461,473,102887,annual_works_count,207
openalex,2026-07-19T13:12:59+00:00,overall,2024,https://openalex.org/I43439940,https://ror.org/01ryk1543,University of Southampton,United Kingdom,GB,Southampton,50.90395,-1.40428,9033,7309,55201,185508,13069367,3.1888958333333335,919,175683,annual_works_count,208
openalex,2026-07-19T13:12:59+00:00,overall,2024,https://openalex.org/I70931966,https://ror.org/0161xgx34,Université de Montréal,Canada,CA,Montreal,45.50884,-73.58781,8963,7047,47460,176579,14274729,3.2589985727413144,915,188492,annual_works_count,209
openalex,2026-07-19T13:12:59+00:00,overall,2024,https://openalex.org/I130701444,https://ror.org/01zkghx44,Georgia Institute of Technology,United States,US,Atlanta,33.749,-84.38798,8955,5568,62581,196417,18056587,4.191852996481299,1136,207607,annual_works_count,210
openalex,2026-07-19T13:12:59+00:00,overall,2024,https://openalex.org/I9224756,https://ror.org/03awzbc87,Northeastern University,China,CN,Shenyang,41.79222106933594,123.43277740478516,8939,2459,83423,95346,4964225,5.749563939001296,362,115652,annual_works_count,211
openalex,2026-07-19T13:12:59+00:00,overall,2024,https://openalex.org/I70640408,https://ror.org/01c4pz451,Tehran University of Medical Sciences,Iran,IR,Tehran,35.69438934326172,51.4215087890625,8929,6814,43403,110537,6434030,3.953513193976913,750,118567,annual_works_count,212
openalex,2026-07-19T13:12:59+00:00,overall,2024,https://openalex.org/I125749732,https://ror.org/02grkyz14,Western University,Canada,CA,London,42.98339,-81.23304,8927,6379,54164,170934,12351882,3.6689402827768607,837,175000,annual_works_count,213
openalex,2026-07-19T13:12:59+00:00,overall,2024,https://openalex.org/I142263535,https://ror.org/01ee9ar58,University of Nottingham,United Kingdom,GB,Nottingham,52.9536,-1.15047,8918,7621,58400,187649,13645836,3.762139971900246,866,192650,annual_works_count,214
openalex,2026-07-19T13:12:59+00:00,overall,2024,https://openalex.org/I96673099,https://ror.org/04qtj9h94,Technical University of Denmark,Denmark,DK,Kongens Lyngby,55.77043914794922,12.503780364990234,8914,7311,53409,150159,12076810,4.121217582857715,986,144206,annual_works_count,215
openalex,2026-07-19T13:12:59+00:00,overall,2024,https://openalex.org/I5681781,https://ror.org/00892tw58,The University of Adelaide,Australia,AU,Adelaide,-34.92866,138.59863,8881,6689,72129,150988,29886521,5.064515513854721,898,401134,annual_works_count,216
openalex,2026-07-19T13:12:59+00:00,overall,2024,https://openalex.org/I84884186,https://ror.org/01kj2bm70,Newcastle University,United Kingdom,GB,Newcastle upon Tyne,54.97328,-1.61396,8847,7287,55805,151232,11855557,3.633818034484311,888,150489,annual_works_count,217
openalex,2026-07-19T13:12:59+00:00,overall,2024,https://openalex.org/I17866349,https://ror.org/004raaa70,Université Fédérale de Toulouse Midi-Pyrénées,France,FR,Toulouse,43.60426,1.44367,8835,7269,49125,90534,6785481,4.042409400240187,704,101657,annual_works_count,218
openalex,2026-07-19T13:12:59+00:00,overall,2024,https://openalex.org/I51556381,https://ror.org/0153tk833,University of Virginia,United States,US,Charlottesville,38.02931,-78.47668,8788,6075,59023,203563,17559934,3.3105997159815024,1050,208336,annual_works_count,219
openalex,2026-07-19T13:12:59+00:00,overall,2024,https://openalex.org/I52418104,https://ror.org/05syd6y78,Universidade Federal do Paraná,Brazil,BR,Curitiba,-25.427780151367188,-49.2730598449707,8754,7591,14730,108794,2571925,1.2082605204741887,348,59113,annual_works_count,220
openalex,2026-07-19T13:12:59+00:00,overall,2024,https://openalex.org/I9842412,https://ror.org/01scyh794,Nanjing University of Aeronautics and Astronautics,China,CN,Nanjing,32.061668395996094,118.77777862548828,8752,3011,65760,95772,4109297,4.171672428694901,416,88888,annual_works_count,221
openalex,2026-07-19T13:12:59+00:00,overall,2024,https://openalex.org/I200777214,https://ror.org/04gnjpq42,National and Kapodistrian University of Athens,Greece,GR,Athens,37.983760833740234,23.727840423583984,8731,6858,54906,129644,9938007,3.636422623553585,739,164634,annual_works_count,222
openalex,2026-07-19T13:12:59+00:00,overall,2024,https://openalex.org/I5124864,https://ror.org/02s376052,École Polytechnique Fédérale de Lausanne,Switzerland,CH,Lausanne,46.516,6.63282,8724,7873,65477,165436,19832980,4.996348699224098,1224,219045,annual_works_count,223
openalex,2026-07-19T13:12:59+00:00,overall,2024,https://openalex.org/I78650965,https://ror.org/042aqky30,Technische Universität Dresden,Germany,DE,Dresden,51.05089,13.73832,8718,6929,51255,139069,10153782,3.5991197608126426,767,146759,annual_works_count,224
openalex,2026-07-19T13:12:59+00:00,overall,2024,https://openalex.org/I25757504,https://ror.org/01xt2dr21,China University of Mining and Technology,China,CN,Xuzhou,34.20441818237305,117.28385925292969,8711,3704,76352,92150,4556904,4.71181464073026,358,106535,annual_works_count,225
openalex,2026-07-19T13:12:59+00:00,overall,2024,https://openalex.org/I177877127,https://ror.org/047272k79,The University of Western Australia,Australia,AU,Perth,-31.95224,115.8614,8706,6952,63824,158001,13385631,4.603365555056604,988,172518,annual_works_count,226
openalex,2026-07-19T13:12:59+00:00,overall,2024,https://openalex.org/I93860229,https://ror.org/01nffqt88,Politecnico di Milano,Italy,IT,Milan,45.46427,9.18951,8687,6371,44663,256281,5790177,0.5097517589442834,529,108515,annual_works_count,227
openalex,2026-07-19T13:12:59+00:00,overall,2024,https://openalex.org/I16733864,https://ror.org/05bqach95,National Taiwan University,Taiwan,TW,Taipei,25.05306,121.52639,8683,5801,44181,171824,12784701,3.136241249326871,719,220281,annual_works_count,228
openalex,2026-07-19T13:12:59+00:00,overall,2024,https://openalex.org/I145608581,https://ror.org/02dgjyy92,University of Miami,United States,US,Coral Gables,25.72149,-80.26838,8658,5703,50707,169903,14051520,2.841839896815692,912,186453,annual_works_count,229
openalex,2026-07-19T13:12:59+00:00,overall,2024,https://openalex.org/I45084792,https://ror.org/04jr1s763,University of Florence,Italy,IT,Florence,43.77925,11.24626,8656,6962,47678,143905,10664781,2.9332763467197083,696,179478,annual_works_count,230
openalex,2026-07-19T13:12:59+00:00,overall,2024,https://openalex.org/I848706,https://ror.org/04q78tk20,Sungkyunkwan University,South Korea,KR,Seoul,37.566,126.9784,8646,5465,77219,126982,11142940,5.003986316064129,708,200427,annual_works_count,231
openalex,2026-07-19T13:12:59+00:00,overall,2024,https://openalex.org/I36399199,https://ror.org/00xp9wg62,Nanjing University of Science and Technology,China,CN,Nanjing,32.061668395996094,118.77777862548828,8642,2923,70057,88423,4708223,4.541154627057064,471,92199,annual_works_count,232
openalex,2026-07-19T13:12:59+00:00,overall,2024,https://openalex.org/I74656192,https://ror.org/01y9bpm73,University of Göttingen,Germany,DE,Göttingen,51.53443,9.93228,8641,8355,41552,167053,13541364,2.1184111916062953,866,182559,annual_works_count,233
openalex,2026-07-19T13:12:59+00:00,overall,2024,https://openalex.org/I196699116,https://ror.org/03fe7t173,Wuhan University of Technology,China,CN,Wuhan,30.583330154418945,114.26667022705078,8631,3306,86533,98022,6197881,5.802681835702522,589,107352,annual_works_count,234
openalex,2026-07-19T13:12:59+00:00,overall,2024,https://openalex.org/I166337079,https://ror.org/026zzn846,Queen Mary University of London,United Kingdom,GB,London,51.50853,-0.12574,8624,6834,61992,136601,13602675,4.582454669321874,982,151499,annual_works_count,235
openalex,2026-07-19T13:12:59+00:00,overall,2024,https://openalex.org/I141649914,https://ror.org/042v6xz23,Nanchang University,China,CN,Nanchang,28.6839599609375,115.85305786132812,8579,5405,71090,79138,4902071,4.793713962690786,384,107762,annual_works_count,236
openalex,2026-07-19T13:12:59+00:00,overall,2024,https://openalex.org/I20089843,https://ror.org/00hx57361,Princeton University,United States,US,Princeton,40.34872,-74.65905,8576,6770,82146,212318,27122779,7.079745942131264,1549,226966,annual_works_count,237
openalex,2026-07-19T13:12:59+00:00,overall,2024,https://openalex.org/I129774422,https://ror.org/03prydq77,University of Vienna,Austria,AT,Vienna,48.20849,16.37208,8565,7129,36552,168417,10481841,2.4970946742976974,779,147140,annual_works_count,238
openalex,2026-07-19T13:12:59+00:00,overall,2024,https://openalex.org/I114090438,https://ror.org/04cvxnb49,Goethe University Frankfurt,Germany,DE,Frankfurt am Main,50.11552,8.68417,8545,6786,42565,168106,14849782,3.290546310011327,1006,184962,annual_works_count,239
openalex,2026-07-19T13:12:59+00:00,overall,2024,https://openalex.org/I82724352,https://ror.org/05n8tts92,Universiti Teknologi MARA,Malaysia,MY,Shah Alam,3.08507,101.53281,8499,6560,20041,78188,1377748,1.077995867768595,259,31470,annual_works_count,240
openalex,2026-07-19T13:12:59+00:00,overall,2024,https://openalex.org/I118347636,https://ror.org/019wvm592,Australian National University,Australia,AU,Canberra,-35.2834587097168,149.12806701660156,8488,6537,48961,192747,14656752,4.353211618698344,1070,168839,annual_works_count,241
openalex,2026-07-19T13:12:59+00:00,overall,2024,https://openalex.org/I154130895,https://ror.org/03b94tp07,University of Auckland,New Zealand,NZ,Auckland,-36.84853,174.76349,8474,6564,57480,142264,9910339,3.4762546239869994,766,135871,annual_works_count,242
openalex,2026-07-19T13:12:59+00:00,overall,2024,https://openalex.org/I27781120,https://ror.org/00rd5t069,Wenzhou Medical University,China,CN,Wenzhou,27.99942,120.66682,8353,6263,58969,71453,4900600,4.871412465775487,404,107132,annual_works_count,243
openalex,2026-07-19T13:12:59+00:00,overall,2024,https://openalex.org/I87780372,https://ror.org/017z00e58,Chongqing Medical University,China,CN,Chongqing,29.56026,106.55771,8341,6443,47505,74980,4566374,3.3804158462791345,396,101240,annual_works_count,244
openalex,2026-07-19T13:12:59+00:00,overall,2024,https://openalex.org/I109935558,https://ror.org/03et85d35,Ningbo University,China,CN,Ningbo,29.87819,121.54945,8334,4402,67736,63879,2735861,4.429759374687986,294,68138,annual_works_count,245
openalex,2026-07-19T13:12:59+00:00,overall,2024,https://openalex.org/I4800084,https://ror.org/00hn7w693,Southwest Jiaotong University,China,CN,Chengdu,30.666669845581055,104.0666732788086,8329,3095,67041,83411,3876175,4.788554537086256,375,84950,annual_works_count,246
openalex,2026-07-19T13:12:59+00:00,overall,2024,https://openalex.org/I16097986,https://ror.org/043nxc105,Universitat de València,Spain,ES,Valencia,39.47391128540039,-0.3796600103378296,8321,7337,42774,130710,11314563,3.7577079071102975,782,164959,annual_works_count,247
openalex,2026-07-19T13:12:59+00:00,overall,2024,https://openalex.org/I82952536,https://ror.org/052kwzs30,King Khalid University,Saudi Arabia,SA,Abhā,18.21639,42.50528,8315,4949,93785,50373,1190917,5.992914402377878,219,30613,annual_works_count,248
openalex,2026-07-19T13:12:59+00:00,overall,2024,https://openalex.org/I39422238,https://ror.org/02mpq6x41,University of Illinois Chicago,United States,US,Chicago,41.85003,-87.65005,8305,5502,53876,198620,17568803,3.5460653411519325,968,232683,annual_works_count,249
openalex,2026-07-19T13:12:59+00:00,overall,2024,https://openalex.org/I165230279,https://ror.org/03ke6d638,Universitas Gadjah Mada,Indonesia,ID,Yogyakarta,-7.801390171051025,110.3647232055664,8287,6890,15240,77517,985547,1.142285834561145,199,24903,annual_works_count,250
openalex,2026-07-19T13:12:59+00:00,overall,2024,https://openalex.org/I188538660,https://ror.org/02ttsq026,University of Colorado Boulder,United States,US,Boulder,40.014991760253906,-105.27055358886719,8272,6179,54756,167525,18690302,3.9845901866248354,1124,191104,annual_works_count,251
openalex,2026-07-19T13:12:59+00:00,overall,2024,https://openalex.org/I2279609970,https://ror.org/02kzqn938,Université de Lille,France,FR,Lille,50.63297,3.05858,8253,5300,34837,109758,5208926,2.5425741230748353,578,84604,annual_works_count,252
openalex,2026-07-19T13:12:59+00:00,overall,2024,https://openalex.org/I92039509,https://ror.org/00zat6v61,Guangzhou Medical University,China,CN,Guangzhou,23.13623809814453,113.25353240966797,8243,6394,55728,70880,5675916,3.54312734573746,598,81726,annual_works_count,253
openalex,2026-07-19T13:12:59+00:00,overall,2024,https://openalex.org/I32389192,https://ror.org/008s83205,University of Alabama at Birmingham,United States,US,Birmingham,33.52066,-86.80249,8236,5726,44566,156311,16030449,2.9155492986763267,992,197149,annual_works_count,254
openalex,2026-07-19T13:12:59+00:00,overall,2024,https://openalex.org/I137902535,https://ror.org/04tj63d06,North Carolina State University,United States,US,Raleigh,35.7721,-78.63861,8232,5803,48063,184434,12238780,3.3367450061281096,821,181633,annual_works_count,255
openalex,2026-07-19T13:12:59+00:00,overall,2024,https://openalex.org/I135598925,https://ror.org/00p4k0j84,Kyushu University,Japan,JP,Fukuoka,33.6,130.41667,8195,5640,38208,230535,14283332,2.5546125395322243,701,264484,annual_works_count,256
openalex,2026-07-19T13:12:59+00:00,overall,2024,https://openalex.org/I4210095297,https://ror.org/00v140q16,MIT University,North Macedonia,MK,Skopje,41.982421875,21.45501708984375,8179,7662,9537,29137,372394,0.96436,214,6288,annual_works_count,257
openalex,2026-07-19T13:12:59+00:00,overall,2024,https://openalex.org/I75951250,https://ror.org/046ak2485,Freie Universität Berlin,Germany,DE,Berlin,52.52437,13.41053,8166,6781,44106,146326,9058879,3.9734259097380056,735,143552,annual_works_count,258
openalex,2026-07-19T13:12:59+00:00,overall,2024,https://openalex.org/I31419693,https://ror.org/040c17130,Kyungpook National University,South Korea,KR,Daegu,35.87028,128.59111,8157,6654,28479,75588,5253300,1.7753890253890254,508,97999,annual_works_count,259
openalex,2026-07-19T13:12:59+00:00,overall,2024,https://openalex.org/I150807315,https://ror.org/02c9qn167,Guangxi University,China,CN,Nanning,22.816669464111328,108.3166732788086,8076,4064,77058,67999,3366455,5.4857975496609965,313,79002,annual_works_count,260
openalex,2026-07-19T13:12:59+00:00,overall,2024,https://openalex.org/I196829312,https://ror.org/01rxfrp27,La Trobe University,Australia,AU,Melbourne,-37.814,144.96332,8073,7063,29073,96601,4352700,2.490152855526873,534,64046,annual_works_count,261
openalex,2026-07-19T13:12:59+00:00,overall,2024,https://openalex.org/I78978612,https://ror.org/03tqb8s11,Yangzhou University,China,CN,Yangzhou,32.397220611572266,119.43582916259766,8022,4858,72069,71982,3949426,4.977096397066639,399,88449,annual_works_count,262
openalex,2026-07-19T13:12:59+00:00,overall,2024,https://openalex.org/I135140700,https://ror.org/041nas322,University of Bonn,Germany,DE,Bonn,50.73438,7.09549,8008,6833,44391,175423,17621680,3.135972191776532,1031,217983,annual_works_count,263
openalex,2026-07-19T13:12:59+00:00,overall,2024,https://openalex.org/I130218214,https://ror.org/044b0xj37,Indonesia University of Education,Indonesia,ID,Bandung,-6.91707706451416,107.61603546142578,7969,7595,7224,52460,406878,0.46947966849401035,133,9402,annual_works_count,264
openalex,2026-07-19T13:12:59+00:00,overall,2024,https://openalex.org/I181369854,https://ror.org/00f7hpc57,Friedrich-Alexander-Universität Erlangen-Nürnberg,Germany,DE,Erlangen,49.59099,11.00783,7962,6185,51211,151877,12524893,3.908423884560288,833,185700,annual_works_count,265
openalex,2026-07-19T13:12:59+00:00,overall,2024,https://openalex.org/I4068193,https://ror.org/02qsmb048,University of Belgrade,Serbia,RS,Belgrade,44.80401,20.46513,7888,6200,35509,113329,5885754,2.786641447856401,494,115353,annual_works_count,266
openalex,2026-07-19T13:12:59+00:00,overall,2024,https://openalex.org/I161046081,https://ror.org/0245cg223,University of Freiburg,Germany,DE,Freiburg im Breisgau,47.99589920043945,7.852220058441162,7886,6568,46636,154192,16923224,3.53991073727577,971,212615,annual_works_count,267
openalex,2026-07-19T13:12:59+00:00,overall,2024,https://openalex.org/I129708740,https://ror.org/050s6ns64,Fujian Medical University,China,CN,Fuzhou,26.061389923095703,119.30610656738281,7852,6108,39688,59632,2487871,2.820934627609312,303,64696,annual_works_count,268
openalex,2026-07-19T13:12:59+00:00,overall,2024,https://openalex.org/I149594827,https://ror.org/05s92vm98,Xidian University,China,CN,Xi'an,34.258331298828125,108.9286117553711,7847,2474,53758,84555,3709773,3.730726448190297,381,80935,annual_works_count,269
openalex,2026-07-19T13:12:59+00:00,overall,2024,https://openalex.org/I39343248,https://ror.org/01hcx6992,Humboldt-Universität zu Berlin,Germany,DE,Berlin,52.52436828613281,13.410530090332031,7842,6483,53371,126460,10371838,3.9437353754520315,782,145510,annual_works_count,270
openalex,2026-07-19T13:12:59+00:00,overall,2024,https://openalex.org/I23946033,https://ror.org/05vf56z40,University of Tehran,Iran,IR,Tehran,35.703468322753906,51.395198822021484,7831,4872,51743,123838,4595412,4.1546285260230436,389,98344,annual_works_count,271
openalex,2026-07-19T13:12:59+00:00,overall,2024,https://openalex.org/I8087733,https://ror.org/03a1kwz48,University of Tübingen,Germany,DE,Tübingen,48.52265930175781,9.052220344543457,7821,6498,47673,153523,13034667,3.571534776144061,899,179516,annual_works_count,272
openalex,2026-07-19T13:12:59+00:00,overall,2024,https://openalex.org/I205133468,https://ror.org/04ctejd88,Airlangga University,Indonesia,ID,Surabaya,-7.24917,112.75083,7783,7001,14496,61236,670302,1.0774578338916752,162,16399,annual_works_count,273
openalex,2026-07-19T13:12:59+00:00,overall,2024,https://openalex.org/I97565354,https://ror.org/019whta54,University of Lausanne,Switzerland,CH,Lausanne,46.516,6.63282,7775,6804,43798,105429,9814022,3.7032116851595007,975,110315,annual_works_count,274
openalex,2026-07-19T13:12:59+00:00,overall,2024,https://openalex.org/I100066346,https://ror.org/04vnq7t77,University of Stuttgart,Germany,DE,Stuttgart,48.782318115234375,9.177020072937012,7770,6356,19853,158802,5325480,1.824566687659155,613,85762,annual_works_count,275
openalex,2026-07-19T13:12:59+00:00,overall,2024,https://openalex.org/I190249584,https://ror.org/054pv6659,Universität Innsbruck,Austria,AT,Innsbruck,47.26266,11.39454,7737,6841,34262,97965,7016757,2.530321214260501,711,100277,annual_works_count,276
openalex,2026-07-19T13:12:59+00:00,overall,2024,https://openalex.org/I4104125,https://ror.org/041akq887,Universidade Federal de Santa Catarina,Brazil,BR,Florianópolis,-27.596670150756836,-48.549171447753906,7675,6150,18973,108951,3196420,1.7772185114503818,334,71478,annual_works_count,277
openalex,2026-07-19T13:12:59+00:00,overall,2024,https://openalex.org/I921990950,https://ror.org/02hh7en24,University of Colorado Denver,United States,US,Denver,39.73915100097656,-104.98470306396484,7654,5019,50224,145243,14656125,3.5623356244612903,980,168485,annual_works_count,278
openalex,2026-07-19T13:12:59+00:00,overall,2024,https://openalex.org/I165690674,https://ror.org/009avj582,Oregon Health & Science University,United States,US,Portland,45.5234489440918,-122.67620849609375,7632,5791,40352,121766,12468299,2.3169444494822176,953,134968,annual_works_count,279
openalex,2026-07-19T13:12:59+00:00,overall,2024,https://openalex.org/I102893293,https://ror.org/00ypgyy34,State University of Malang,Indonesia,ID,Malang,-7.9797,112.6304,7631,6988,8701,51241,421702,0.5965263727238126,134,10459,annual_works_count,280
openalex,2026-07-19T13:12:59+00:00,overall,2024,https://openalex.org/I37796252,https://ror.org/037b1pp87,Beijing University of Technology,China,CN,Beijing,39.9075,116.39723,7619,2763,70473,80548,3845772,5.094825310217372,398,81996,annual_works_count,281
openalex,2026-07-19T13:12:59+00:00,overall,2024,https://openalex.org/I63739035,https://ror.org/02dwcqs71,All India Institute of Medical Sciences,India,IN,New Delhi,28.62137,77.2148,7617,5403,25119,85140,3819830,1.942693188145765,452,78720,annual_works_count,282
openalex,2026-07-19T13:12:59+00:00,overall,2024,https://openalex.org/I39555362,https://ror.org/01a77tt86,University of Warwick,United Kingdom,GB,Coventry,52.40656,-1.51217,7525,6041,44421,140276,9158091,3.8426552695291267,782,123353,annual_works_count,283
openalex,2026-07-19T13:12:59+00:00,overall,2024,https://openalex.org/I111599522,https://ror.org/04mkzax54,Jiangnan University,China,CN,Wuxi,31.568870544433594,120.28856658935547,7516,3226,75697,75375,5563779,5.81204599738987,380,120536,annual_works_count,284
openalex,2026-07-19T13:12:59+00:00,overall,2024,https://openalex.org/I142108993,https://ror.org/01kj4z117,Southwest University,China,CN,Chongqing,29.560260772705078,106.55770874023438,7476,4033,57668,81610,4748501,4.184764190906524,433,100970,annual_works_count,285
openalex,2026-07-19T13:12:59+00:00,overall,2024,https://openalex.org/I197347611,https://ror.org/047dqcg40,Korea University,South Korea,KR,Seoul,37.566,126.9784,7472,4276,71366,117348,9752798,5.6451923273762,651,171605,annual_works_count,286
openalex,2026-07-19T13:12:59+00:00,overall,2024,https://openalex.org/I108290504,https://ror.org/03ad39j10,University of Pisa,Italy,IT,Pisa,43.70853,10.4036,7466,5757,48868,135932,12674346,3.9329147841733656,899,184577,annual_works_count,287
openalex,2026-07-19T13:12:59+00:00,overall,2024,https://openalex.org/I15057530,https://ror.org/057qpr032,Université de Bordeaux,France,FR,Bordeaux,44.84124,-0.58046,7466,5877,38488,122742,8349969,3.0394482955763595,688,128097,annual_works_count,287
openalex,2026-07-19T13:12:59+00:00,overall,2024,https://openalex.org/I110360157,https://ror.org/00et6q107,Lovely Professional University,India,IN,Phagwāra,31.224519729614258,75.77387237548828,7464,3708,49537,35140,780021,3.50598195126253,254,16285,annual_works_count,289
openalex,2026-07-19T13:12:59+00:00,overall,2024,https://openalex.org/I185163786,https://ror.org/02ma4wv74,King Abdulaziz University,Saudi Arabia,SA,Jeddah,21.49012,39.18624,7460,5453,54627,96754,5074190,4.014856295387133,540,81608,annual_works_count,290
openalex,2026-07-19T13:12:59+00:00,overall,2024,https://openalex.org/I891191580,https://ror.org/04m5j1k67,Aalborg University,Denmark,DK,Aalborg,57.048,9.9187,7454,5482,39665,114130,4533781,3.199340678922515,548,73248,annual_works_count,291
openalex,2026-07-19T13:12:59+00:00,overall,2024,https://openalex.org/I33849332,https://ror.org/00rzspn62,University of Malaya,Malaysia,MY,Kuala Lumpur,3.1412,101.68653,7433,5068,43592,110532,5944718,3.228365156264843,599,101295,annual_works_count,292
openalex,2026-07-19T13:12:59+00:00,overall,2024,https://openalex.org/I177969490,https://ror.org/03yrrjy16,University of Southern Denmark,Denmark,DK,Odense,55.39594,10.38831,7429,6371,42577,92967,5537069,3.320968847589306,615,76578,annual_works_count,293
openalex,2026-07-19T13:12:59+00:00,overall,2024,https://openalex.org/I79510175,https://ror.org/03kk7td41,Cardiff University,United Kingdom,GB,Cardiff,51.48,-3.18,7419,6185,41503,126877,13457711,4.303322849719677,1231,127886,annual_works_count,294
openalex,2026-07-19T13:12:59+00:00,overall,2024,https://openalex.org/I197323543,https://ror.org/023b0x485,Johannes Gutenberg University Mainz,Germany,DE,Mainz,49.98419,8.2791,7415,5969,46500,142262,16087636,3.8494328922495273,951,212384,annual_works_count,295
openalex,2026-07-19T13:12:59+00:00,overall,2024,https://openalex.org/I4210137904,https://ror.org/03z1wm043,Universitas Islam Negeri Sumatera Utara,Indonesia,ID,Medan,3.583329916000366,98.66667175292969,7396,7294,3536,32612,83735,0.23587302222311124,59,1401,annual_works_count,296
openalex,2026-07-19T13:12:59+00:00,overall,2024,https://openalex.org/I60134161,https://ror.org/04chrp450,Nagoya University,Japan,JP,Nagoya,35.18146896362305,136.90640258789062,7386,5359,41402,268196,14962763,1.3552167371968011,748,258921,annual_works_count,297
openalex,2026-07-19T13:12:59+00:00,overall,2024,https://openalex.org/I200769079,https://ror.org/00q4vv597,Hong Kong University of Science and Technology,Hong Kong,HK,Hong Kong,22.27832,114.17469,7365,3708,89377,94843,8622583,6.601134470805384,748,110596,annual_works_count,298
openalex,2026-07-19T13:12:59+00:00,overall,2024,https://openalex.org/I885383172,https://ror.org/00bw8d226,National University of Malaysia,Malaysia,MY,Bangi,2.9000000953674316,101.78333282470703,7364,5611,38545,90229,3220854,3.0965593784683683,408,64638,annual_works_count,299
openalex,2026-07-19T13:12:59+00:00,overall,2024,https://openalex.org/I149704539,https://ror.org/02czsnj07,Deakin University,Australia,AU,Burwood,-37.84978,145.11901,7353,6480,51871,95899,5771752,4.423449661059503,612,88556,annual_works_count,300
openalex,2026-07-19T13:12:59+00:00,overall,2024,https://openalex.org/I66867065,https://ror.org/02n96ep67,East China Normal University,China,CN,Shanghai,31.222219467163086,121.45806121826172,7351,3704,59863,84914,5204850,5.0728665405064435,497,95759,annual_works_count,301
openalex,2026-07-19T13:12:59+00:00,overall,2024,https://openalex.org/I4210128276,https://ror.org/03k7bde87,Sağlık Bilimleri Üniversitesi,Türkiye,TR,Istanbul,41.01384,28.94966,7349,5574,18539,60229,770448,1.2541137111583847,166,20365,annual_works_count,302
openalex,2026-07-19T13:12:59+00:00,overall,2024,https://openalex.org/I150729083,https://ror.org/02xfp8v59,Universidade de Brasília,Brazil,BR,Brasília,-15.77972,-47.92972,7340,6215,13928,102564,2199488,1.3444693916195525,309,50892,annual_works_count,303
openalex,2026-07-19T13:12:59+00:00,overall,2024,https://openalex.org/I245308123,https://ror.org/04jrfgq66,State University of Padang,Indonesia,ID,Padang,-0.9492400288581848,100.3542709350586,7338,7015,7217,51016,308081,0.5202966904502762,110,7180,annual_works_count,304
openalex,2026-07-19T13:12:59+00:00,overall,2024,https://openalex.org/I151746483,https://ror.org/01aff2v68,University of Waterloo,Canada,CA,Waterloo,43.4668,-80.51639,7310,4788,52768,156304,9645235,4.342054916332085,770,141974,annual_works_count,305
openalex,2026-07-19T13:12:59+00:00,overall,2024,https://openalex.org/I74973139,https://ror.org/05x2bcf33,Carnegie Mellon University,United States,US,Pittsburgh,40.44062,-79.99589,7288,5457,53239,158854,16592468,4.126993778941952,1144,170196,annual_works_count,306
openalex,2026-07-19T13:12:59+00:00,overall,2024,https://openalex.org/I79238269,https://ror.org/03yxnpp24,Universidad de Sevilla,Spain,ES,Seville,37.38283,-5.97317,7276,5990,31464,108242,5045971,2.570341373273682,502,95255,annual_works_count,307
openalex,2026-07-19T13:12:59+00:00,overall,2024,https://openalex.org/I197869895,https://ror.org/03xb04968,Anhui Medical University,China,CN,Hefei,31.86389,117.28083,7264,5508,43667,59552,3401373,3.6509060714111268,386,78156,annual_works_count,308
openalex,2026-07-19T13:12:59+00:00,overall,2024,https://openalex.org/I121797337,https://ror.org/027bh9e22,Leiden University,The Netherlands,NL,Leiden,52.15833,4.49306,7259,6517,43919,147065,11952301,4.040869777073943,870,149329,annual_works_count,309
openalex,2026-07-19T13:12:59+00:00,overall,2024,https://openalex.org/I180923762,https://ror.org/00rcxh774,University of Cologne,Germany,DE,Cologne,50.93333,6.95,7249,6078,35955,132911,9547903,3.0458568525626553,802,135207,annual_works_count,310
openalex,2026-07-19T13:12:59+00:00,overall,2024,https://openalex.org/I139322472,https://ror.org/02rgb2k63,Universiti Sains Malaysia,Malaysia,MY,George Town,5.41123,100.33543,7224,4802,38663,79534,3743072,3.2731137379665944,454,69633,annual_works_count,311
openalex,2026-07-19T13:12:59+00:00,overall,2024,https://openalex.org/I153473198,https://ror.org/04qr5t414,North China Electric Power University,China,CN,Beijing,39.907501220703125,116.39723205566406,7219,2618,50305,88500,3364072,4.0446444096678835,385,68313,annual_works_count,312
openalex,2026-07-19T13:12:59+00:00,overall,2024,https://openalex.org/I119896790,https://ror.org/021hq5q33,Sebelas Maret University,Indonesia,ID,Surakarta,-7.561408042907715,110.85578155517578,7217,6727,8462,57988,465379,0.660550068119891,130,11243,annual_works_count,313
openalex,2026-07-19T13:12:59+00:00,overall,2024,https://openalex.org/I4210089966,https://ror.org/00a0jsq62,London School of Hygiene & Tropical Medicine,United Kingdom,GB,London,51.52090072631836,-0.1307000070810318,7173,6844,36811,114961,10486831,3.6885162054484764,1059,94535,annual_works_count,314
openalex,2026-07-19T13:12:59+00:00,overall,2024,https://openalex.org/I200719446,https://ror.org/02vm5rt34,Vanderbilt University,United States,US,Nashville,36.16589,-86.78444,7157,5355,43875,173027,19596074,3.141066476804317,1105,221437,annual_works_count,315
openalex,2026-07-19T13:12:59+00:00,overall,2024,https://openalex.org/I25399158,https://ror.org/01znkr924,Mahidol University,Thailand,TH,Bangkok,13.75398,100.50144,7124,6069,29095,85867,4289618,2.253438507277423,473,83065,annual_works_count,316
openalex,2026-07-19T13:12:59+00:00,overall,2024,https://openalex.org/I161593684,https://ror.org/05f0yaq80,Stockholm University,Sweden,SE,Stockholm,59.32938,18.06871,7110,6351,44108,130405,12539607,4.156607039815349,954,138494,annual_works_count,317
openalex,2026-07-19T13:12:59+00:00,overall,2024,https://openalex.org/I80947539,https://ror.org/011xvna82,Fuzhou University,China,CN,Fuzhou,26.061389923095703,119.30610656738281,7076,2791,73029,64951,4771612,6.127520452540981,508,84780,annual_works_count,318
openalex,2026-07-19T13:12:59+00:00,overall,2024,https://openalex.org/I205349734,https://ror.org/02e16g702,Hokkaido University,Japan,JP,Sapporo,43.07817840576172,141.3399658203125,7074,5399,29822,254712,11712937,0.9875307401891171,649,224162,annual_works_count,319
openalex,2026-07-19T13:12:59+00:00,overall,2024,https://openalex.org/I1850255,https://ror.org/02s6k3f65,University of Basel,Switzerland,CH,Basel,47.55839,7.57327,7059,6252,48484,109868,10600406,4.059526649806747,869,130903,annual_works_count,320
openalex,2026-07-19T13:12:59+00:00,overall,2024,https://openalex.org/I59028903,https://ror.org/04rdtx186,Ocean University of China,China,CN,Qingdao,36.06488037109375,120.38041687011719,7048,3526,51550,73206,4320411,4.1070194944778,393,94826,annual_works_count,321
openalex,2026-07-19T13:12:59+00:00,overall,2024,https://openalex.org/I27804330,https://ror.org/05gq02987,Brown University,United States,US,Providence,41.82399,-71.41283,7045,4666,51267,138183,14560209,3.924037512339585,1003,170776,annual_works_count,322
openalex,2026-07-19T13:12:59+00:00,overall,2024,https://openalex.org/I43406934,https://ror.org/04sjchr03,Université Laval,Canada,CA,Québec,46.81228,-71.21454,7045,5271,31828,129008,9481416,2.8079228034535295,760,136841,annual_works_count,322
openalex,2026-07-19T13:12:59+00:00,overall,2024,https://openalex.org/I114457229,https://ror.org/01swzsf04,University of Geneva,Switzerland,CH,Geneva,46.20222,6.14569,7016,6253,45347,132728,15841585,4.226405134918289,1014,176967,annual_works_count,324
openalex,2026-07-19T13:12:59+00:00,overall,2024,https://openalex.org/I63634437,https://ror.org/01cby8j38,Universidad Autónoma de Madrid,Spain,ES,Madrid,40.4165,-3.70256,6994,5911,41685,127246,9792822,3.54874337583294,723,145618,annual_works_count,325
openalex,2026-07-19T13:12:59+00:00,overall,2024,https://openalex.org/I163340411,https://ror.org/01wd4xt90,Hohai University,China,CN,Nanjing,32.061668395996094,118.77777862548828,6991,3286,56824,74016,2855669,4.436446293160568,302,64485,annual_works_count,326
openalex,2026-07-19T13:12:59+00:00,overall,2024,https://openalex.org/I134560555,https://ror.org/02v6kpv12,Université Toulouse III - Paul Sabatier,France,FR,Toulouse,43.60426,1.44367,6966,5802,48134,107898,9335973,4.348449612403101,748,131322,annual_works_count,327
openalex,2026-07-19T13:12:59+00:00,overall,2024,https://openalex.org/I25112270,https://ror.org/047908t24,Universidade Federal de Pernambuco,Brazil,BR,Recife,-8.053890228271484,-34.88111114501953,6964,5604,13327,88845,2205510,1.2816453425804137,320,51723,annual_works_count,328
openalex,2026-07-19T13:12:59+00:00,overall,2024,https://openalex.org/I145847075,https://ror.org/04d836q62,TU Wien,Austria,AT,Vienna,48.20849,16.37208,6961,5892,23024,107571,5159381,2.0629014837132624,627,75108,annual_works_count,329
openalex,2026-07-19T13:12:59+00:00,overall,2024,https://openalex.org/I10660446,https://ror.org/00xyeez13,Kunming University of Science and Technology,China,CN,Kunming,25.061561584472656,102.69563293457031,6953,3209,64774,60862,2761420,4.974071676572707,297,69163,annual_works_count,330
openalex,2026-07-19T13:12:59+00:00,overall,2024,https://openalex.org/I76134821,https://ror.org/05n3x4p02,Medical University of Vienna,Austria,AT,Vienna,48.20849,16.37208,6947,5742,53041,102828,10078508,3.644317524834002,745,147439,annual_works_count,331
openalex,2026-07-19T13:12:59+00:00,overall,2024,https://openalex.org/I177055848,https://ror.org/01wk3d929,University of Brawijaya,Indonesia,ID,Malang,-7.979700088500977,112.63040161132812,6926,6392,9556,56305,503169,0.790942589887273,150,12501,annual_works_count,332
openalex,2026-07-19T13:12:59+00:00,overall,2024,https://openalex.org/I114017466,https://ror.org/03f0f6041,University of Technology Sydney,Australia,AU,Sydney,-33.86785,151.20732,6924,4305,63203,98798,5376432,5.472902633190447,571,82753,annual_works_count,333
openalex,2026-07-19T13:12:59+00:00,overall,2024,https://openalex.org/I55712492,https://ror.org/02djqfd08,Zhejiang University of Technology,China,CN,Hangzhou,30.293649673461914,120.16142272949219,6914,2824,72458,71494,4020901,5.7286310834408924,392,86218,annual_works_count,334
openalex,2026-07-19T13:12:59+00:00,overall,2024,https://openalex.org/I91819753,https://ror.org/00xqf8t64,Padjadjaran University,Indonesia,ID,Bandung,-6.922220230102539,107.60694122314453,6901,6419,13973,54868,675158,1.3205815499421023,166,15814,annual_works_count,335
openalex,2026-07-19T13:12:59+00:00,overall,2024,https://openalex.org/I100930933,https://ror.org/05m7pjf47,University College Dublin,Ireland,IE,Dublin,53.33306,-6.24889,6871,5365,48032,106388,6886680,3.3908150064683054,661,96670,annual_works_count,336
openalex,2026-07-19T13:12:59+00:00,overall,2024,https://openalex.org/I139024713,https://ror.org/04azbjn80,Guangdong University of Technology,China,CN,Guangzhou,23.03895378112793,113.39608001708984,6858,2475,74302,58769,3221970,6.346603102832522,355,67674,annual_works_count,337
openalex,2026-07-19T13:12:59+00:00,overall,2024,https://openalex.org/I58956616,https://ror.org/051fd9666,Case Western Reserve University,United States,US,Cleveland,41.4995,-81.69541,6856,4792,47068,171762,16890519,3.9559067383548565,1027,201829,annual_works_count,338
openalex,2026-07-19T13:12:59+00:00,overall,2024,https://openalex.org/I55769427,https://ror.org/05gxnyn08,Indiana University – Purdue University Indianapolis,United States,US,Indianapolis,39.76838,-86.15804,6828,4741,44738,146040,13963632,3.9462480516588734,908,175234,annual_works_count,339
openalex,2026-07-19T13:12:59+00:00,overall,2024,https://openalex.org/I99043593,https://ror.org/01sf06y89,Macquarie University,Australia,AU,Sydney,-33.86785,151.20732,6825,5095,42088,101863,5444179,3.5545498872432497,654,77179,annual_works_count,340
openalex,2026-07-19T13:12:59+00:00,overall,2024,https://openalex.org/I68947357,https://ror.org/00pg6eq24,Université de Strasbourg,France,FR,Strasbourg,48.58392,7.74553,6813,5401,31011,88268,7226914,3.519723727433529,663,108285,annual_works_count,341
openalex,2026-07-19T13:12:59+00:00,overall,2024,https://openalex.org/I122411786,https://ror.org/05dxps055,California Institute of Technology,United States,US,Pasadena,34.14778,-118.14452,6783,5613,54605,245160,37173385,7.9965203895161086,1856,258898,annual_works_count,342
openalex,2026-07-19T13:12:59+00:00,overall,2024,https://openalex.org/I158708052,https://ror.org/028wp3y58,Chulalongkorn University,Thailand,TH,Bangkok,13.75398,100.50144,6730,5057,36019,80664,3254976,3.0317528611995526,394,69893,annual_works_count,343
openalex,2026-07-19T13:12:59+00:00,overall,2024,https://openalex.org/I21370196,https://ror.org/02j61yw88,Aristotle University of Thessaloniki,Greece,GR,Thessaloniki,40.64360809326172,22.93086051940918,6712,4891,37490,108907,6921886,3.4021619602879847,549,124892,annual_works_count,344
openalex,2026-07-19T13:12:59+00:00,overall,2024,https://openalex.org/I181343428,https://ror.org/00mv6sv71,University of Zagreb,Croatia,HR,Zagreb,45.81444,15.97798,6711,5455,24135,110454,3372315,2.158428117082637,430,69181,annual_works_count,345
openalex,2026-07-19T13:12:59+00:00,overall,2024,https://openalex.org/I126307644,https://ror.org/036jqmy94,University of Iowa,United States,US,Iowa City,41.66113,-91.53017,6697,4803,32988,192607,18895006,2.8727846616477213,995,233052,annual_works_count,346
openalex,2026-07-19T13:12:59+00:00,overall,2024,https://openalex.org/I76903346,https://ror.org/04z8k9a98,University of Coimbra,Portugal,PT,Coimbra,40.20686,-8.41996,6677,5552,32458,95761,4943252,2.9414028201022675,507,86035,annual_works_count,347
openalex,2026-07-19T13:12:59+00:00,overall,2024,https://openalex.org/I904495901,https://ror.org/04tsk2644,Ruhr University Bochum,Germany,DE,Bochum,51.48165,7.21648,6641,5081,37370,121822,7567733,2.980097971933644,640,126911,annual_works_count,348
openalex,2026-07-19T13:12:59+00:00,overall,2024,https://openalex.org/I84524832,https://ror.org/00mzz1w90,Alexandria University,Egypt,EG,Alexandria,31.20176,29.91582,6637,5036,33445,69775,1834644,2.7660464484585088,303,42351,annual_works_count,349
openalex,2026-07-19T13:12:59+00:00,overall,2024,https://openalex.org/I101407740,https://ror.org/05t4pvx35,Chandigarh University,India,IN,Mohali,30.679950714111328,76.72210693359375,6615,2327,41228,33308,441151,2.8561010060246175,163,10523,annual_works_count,350
openalex,2026-07-19T13:12:59+00:00,overall,2024,https://openalex.org/I170215575,https://ror.org/05d2yfz11,National University of Defense Technology,China,CN,Changsha,28.198740005493164,112.97087097167969,6610,2398,43218,88021,3171524,3.1304942424988376,350,72483,annual_works_count,351
openalex,2026-07-19T13:12:59+00:00,overall,2024,https://openalex.org/I143302722,https://ror.org/02k3smh20,University of Kentucky,United States,US,Lexington,37.98869,-84.47772,6598,4505,28224,163057,10902694,1.648109622956175,783,157645,annual_works_count,352
openalex,2026-07-19T13:12:59+00:00,overall,2024,https://openalex.org/I40034438,https://ror.org/0198v2949,Universidade do Estado do Rio de Janeiro,Brazil,BR,Rio de Janeiro,-22.90641975402832,-43.18223190307617,6584,5717,10465,80940,3342691,1.5047098823922858,460,60641,annual_works_count,353
openalex,2026-07-19T13:12:59+00:00,overall,2024,https://openalex.org/I69552723,https://ror.org/00g0p6g84,University of Pretoria,South Africa,ZA,Pretoria,-25.74486,28.18783,6582,5468,35553,96466,3180476,3.2885410017804952,421,62236,annual_works_count,354
openalex,2026-07-19T13:12:59+00:00,overall,2024,https://openalex.org/I192619145,https://ror.org/03rp50x72,University of the Witwatersrand,South Africa,ZA,Johannesburg,-26.20227,28.04363,6582,5376,33845,103250,5211665,3.199972156480579,547,88602,annual_works_count,354
openalex,2026-07-19T13:12:59+00:00,overall,2024,https://openalex.org/I75027704,https://ror.org/020f3ap87,University of Tennessee at Knoxville,United States,US,Knoxville,35.96064,-83.92074,6554,4281,38932,147872,10561577,3.1619286903988932,763,147687,annual_works_count,356
openalex,2026-07-19T13:12:59+00:00,overall,2024,https://openalex.org/I164861460,https://ror.org/02xzytt36,Manipal Academy of Higher Education,India,IN,Manipal,13.35,74.78333,6554,4663,38886,53704,1569963,3.5112090262158473,287,35750,annual_works_count,356
openalex,2026-07-19T13:12:59+00:00,overall,2024,https://openalex.org/I44260953,https://ror.org/024z2rq82,Heinrich Heine University Düsseldorf,Germany,DE,Düsseldorf,51.22172164916992,6.776159763336182,6530,5156,39641,123736,10494301,3.8097089788404657,858,137336,annual_works_count,358
openalex,2026-07-19T13:12:59+00:00,overall,2024,https://openalex.org/I148366613,https://ror.org/00se2k293,National Yang Ming Chiao Tung University,Taiwan,TW,Hsinchu,24.80360984802246,120.96861267089844,6495,4176,36313,131310,8219246,3.2418350009439307,597,160987,annual_works_count,359
openalex,2026-07-19T13:12:59+00:00,overall,2024,https://openalex.org/I3124059619,https://ror.org/04gcegc37,China University of Geosciences,China,CN,Wuhan,30.583330154418945,114.26667022705078,6491,2907,65211,67771,3926436,5.303702492551413,385,78069,annual_works_count,360
openalex,2026-07-19T13:12:59+00:00,overall,2024,https://openalex.org/I76835614,https://ror.org/02ymw8z06,University of Missouri,United States,US,Columbia,38.95171,-92.33407,6484,4558,26598,133378,8995493,2.705674865776002,751,131365,annual_works_count,361
openalex,2026-07-19T13:12:59+00:00,overall,2024,https://openalex.org/I153976015,https://ror.org/05njb9z20,University of Ljubljana,Slovenia,SI,Ljubljana,46.05107879638672,14.50512981414795,6483,5638,36494,93627,4958948,2.915546417839633,518,83619,annual_works_count,362
openalex,2026-07-19T13:12:59+00:00,overall,2024,https://openalex.org/I86987016,https://ror.org/026vcq606,KTH Royal Institute of Technology,Sweden,SE,Stockholm,59.32938,18.06871,6438,4994,42105,117093,8411126,3.8116298607777246,724,118075,annual_works_count,363
openalex,2026-07-19T13:12:59+00:00,overall,2024,https://openalex.org/I2613432,https://ror.org/032db5x82,University of South Florida,United States,US,Tampa,27.94752,-82.45843,6435,3870,29875,130946,8033339,2.429436860068259,741,108782,annual_works_count,364
openalex,2026-07-19T13:12:59+00:00,overall,2024,https://openalex.org/I74319210,https://ror.org/057d6z539,Chitkara University,India,IN,Chandigarh,30.736289978027344,76.78839874267578,6432,1636,40569,25046,442447,3.9359541298156198,199,9782,annual_works_count,365
openalex,2026-07-19T13:12:59+00:00,overall,2024,https://openalex.org/I149213910,https://ror.org/008x57b05,University of Antwerp,Belgium,BE,Antwerp,51.22272872924805,4.408430099487305,6430,5260,36164,95765,9212181,7.727091235775604,831,126345,annual_works_count,366
openalex,2026-07-19T13:12:59+00:00,overall,2024,https://openalex.org/I159948400,https://ror.org/02xe5ns62,Jinan University,China,CN,Guangzhou,23.116670608520508,113.25,6389,3304,67636,71584,4923448,6.409428273222776,438,100092,annual_works_count,367
openalex,2026-07-19T13:12:59+00:00,overall,2024,https://openalex.org/I134635517,https://ror.org/00apj8t60,Bandung Institute of Technology,Indonesia,ID,Bandung,-6.922220230102539,107.60694122314453,6389,4980,12970,56763,809430,1.2842909071889956,201,19541,annual_works_count,367
openalex,2026-07-19T13:12:59+00:00,overall,2024,https://openalex.org/I4210163399,https://ror.org/05jb9pq57,Shandong First Medical University,China,CN,Jinan,36.668331146240234,116.99722290039062,6366,4665,42195,42690,2125046,3.4960231966695283,283,39061,annual_works_count,369
openalex,2026-07-19T13:12:59+00:00,overall,2024,https://openalex.org/I155660961,https://ror.org/05vghhr25,University of Turku,Finland,FI,Turku,60.45148,22.26869,6353,5660,28749,92522,6527816,2.690409535628734,610,101022,annual_works_count,370
openalex,2026-07-19T13:12:59+00:00,overall,2024,https://openalex.org/I11701301,https://ror.org/02sc3r913,Griffith University,Australia,AU,Brisbane,-27.46794,153.02809,6343,5162,45818,98107,5469336,4.288143397467522,543,84699,annual_works_count,371
openalex,2026-07-19T13:12:59+00:00,overall,2024,https://openalex.org/I21193070,https://ror.org/01yj56c84,Beijing Jiaotong University,China,CN,Beijing,39.907501220703125,116.39723205566406,6341,2218,42966,80815,2805922,3.8873013618005805,340,62110,annual_works_count,372
openalex,2026-07-19T13:12:59+00:00,overall,2024,https://openalex.org/I4654613,https://ror.org/039bjqg32,University of Warsaw,Poland,PL,Warsaw,52.22977,21.01178,6299,5245,20229,108972,4448870,2.2199457959605087,582,73513,annual_works_count,373
openalex,2026-07-19T13:12:59+00:00,overall,2024,https://openalex.org/I919571938,https://ror.org/03gds6c39,The University of Texas Health Science Center at Houston,United States,US,Houston,29.76328,-95.36327,6296,4459,38892,143167,7981247,3.3599146294140474,767,96855,annual_works_count,374
openalex,2026-07-19T13:12:59+00:00,overall,2024,https://openalex.org/I60054993,https://ror.org/03wqgqd89,Graphic Era University,India,IN,Dehradun,30.324430465698242,78.03392028808594,6273,1832,43362,24453,335985,3.841783459721285,149,8365,annual_works_count,375
openalex,2026-07-19T13:12:59+00:00,overall,2024,https://openalex.org/I159247623,https://ror.org/01k8vtd75,Mansoura University,Egypt,EG,Al Mansurah,31.03636932373047,31.38068962097168,6271,4581,41137,68377,1979316,3.4807909924182416,288,45047,annual_works_count,376
openalex,2026-07-19T13:12:59+00:00,overall,2024,https://openalex.org/I169108374,https://ror.org/000xsnr85,University of the Basque Country,Spain,ES,Leioa,43.32686,-2.98884,6266,5285,33839,97133,5237491,2.9983457642859217,489,98655,annual_works_count,377
openalex,2026-07-19T13:12:59+00:00,overall,2024,https://openalex.org/I20942203,https://ror.org/03q648j11,Hainan University,China,CN,Haikou,20.034210205078125,110.34651184082031,6263,3355,58635,44040,1718083,5.045284685419214,278,41221,annual_works_count,378
openalex,2026-07-19T13:12:59+00:00,overall,2024,https://openalex.org/I22465464,https://ror.org/00pd74e08,University of Münster,Germany,DE,Münster,51.96236,7.62571,6263,5160,30281,124814,9199635,3.5985967926689577,718,133112,annual_works_count,378
openalex,2026-07-19T13:12:59+00:00,overall,2024,https://openalex.org/I24354313,https://ror.org/0081fs513,Universidad de Buenos Aires,Argentina,AR,Buenos Aires,-34.61315,-58.37723,6261,5076,16702,129972,5588624,1.829465366270378,507,109513,annual_works_count,380
openalex,2026-07-19T13:12:59+00:00,overall,2024,https://openalex.org/I4210124175,https://ror.org/03c3r2d17,Center for Astrophysics Harvard & Smithsonian,United States,US,Cambridge,42.375099182128906,-71.1056137084961,6253,6128,18802,65549,6147292,3.8899446590790436,868,50119,annual_works_count,381
