source,retrieved_at,ranking_scope,ranking_year,openalex_id,ror_id,name,country,country_code,city,latitude,longitude,works_count,open_access_works_count,citations_to_year_works,lifetime_works_count,lifetime_cited_by_count,two_year_mean_citedness,h_index,i10_index,ranking_metric,ranking
openalex,2026-07-19T13:12:56+00:00,overall,2021,https://openalex.org/I100066346,https://ror.org/04vnq7t77,University of Stuttgart,Germany,DE,Stuttgart,48.782318115234375,9.177020072937012,49316,47561,60210,158802,5325480,1.824566687659155,613,85762,annual_works_count,1
openalex,2026-07-19T13:12:56+00:00,overall,2021,https://openalex.org/I40120149,https://ror.org/052gg0110,University of Oxford,United Kingdom,GB,Oxford,51.75222,-1.25596,40353,34483,739359,595350,63481881,4.676979520012395,2073,566731,annual_works_count,2
openalex,2026-07-19T13:12:56+00:00,overall,2021,https://openalex.org/I73236664,https://ror.org/0581k0452,Wheaton College - Illinois,United States,US,Wheaton,41.86613845825195,-88.10700988769531,38015,37888,1390,95973,80619,0.013443179604219433,117,1369,annual_works_count,3
openalex,2026-07-19T13:12:56+00:00,overall,2021,https://openalex.org/I4210165038,https://ror.org/05qbk4x57,University of Chinese Academy of Sciences,China,CN,Beijing,39.9075,116.39723,36484,18351,997713,384697,30453205,5.977735462135638,907,541479,annual_works_count,4
openalex,2026-07-19T13:12:56+00:00,overall,2021,https://openalex.org/I136199984,https://ror.org/03vek6s52,Harvard University,United States,US,Cambridge,42.3751,-71.10561,35268,25491,1372087,704018,143952100,7.261852174527302,2772,1100822,annual_works_count,5
openalex,2026-07-19T13:12:56+00:00,overall,2021,https://openalex.org/I45129253,https://ror.org/02jx3x895,University College London,United Kingdom,GB,London,51.50853,-0.12574,32249,26047,970447,583087,65779892,5.205234697290668,2066,672034,annual_works_count,6
openalex,2026-07-19T13:12:56+00:00,overall,2021,https://openalex.org/I2801153862,https://ror.org/0159z1911,Escuela Oficial de Idiomas de Granada,Spain,ES,Granada,37.18817138671875,-3.6066699028015137,30311,30307,61,33667,2942,0.19672131147540983,33,70,annual_works_count,7
openalex,2026-07-19T13:12:56+00:00,overall,2021,https://openalex.org/I185261750,https://ror.org/03dbr7087,University of Toronto,Canada,CA,Toronto,43.70643,-79.39864,29287,19268,813595,553930,58615111,4.394456194033209,1782,654321,annual_works_count,8
openalex,2026-07-19T13:12:56+00:00,overall,2021,https://openalex.org/I20231570,https://ror.org/02v51f717,Peking University,China,CN,Beijing,39.9075,116.39723,27598,18357,593904,394067,32282882,5.119990598602419,1123,493923,annual_works_count,9
openalex,2026-07-19T13:12:56+00:00,overall,2021,https://openalex.org/I17974374,https://ror.org/036rp1748,Universidade de São Paulo,Brazil,BR,São Paulo,-23.5475,-46.63611,27403,21142,341608,474131,22740583,2.0249407184337906,868,447122,annual_works_count,10
openalex,2026-07-19T13:12:56+00:00,overall,2021,https://openalex.org/I183067930,https://ror.org/0220qvk04,Shanghai Jiao Tong University,China,CN,Shanghai,31.222219467163086,121.45806121826172,26725,14687,645650,366955,28122107,5.734157706564315,878,523688,annual_works_count,11
openalex,2026-07-19T13:12:56+00:00,overall,2021,https://openalex.org/I97018004,https://ror.org/00f54p054,Stanford University,United States,US,Stanford,37.42411,-122.16608,25574,18436,683977,528279,87451954,6.412806063072928,2487,664384,annual_works_count,12
openalex,2026-07-19T13:12:56+00:00,overall,2021,https://openalex.org/I76130692,https://ror.org/00a2xv884,Zhejiang University,China,CN,Hangzhou,30.29365,120.16142,24782,13592,652917,370767,29522602,5.727982986734534,940,521430,annual_works_count,13
openalex,2026-07-19T13:12:56+00:00,overall,2021,https://openalex.org/I145311948,https://ror.org/00za53h95,Johns Hopkins University,United States,US,Baltimore,39.29038,-76.61219,24630,17900,728848,498008,76723169,4.172519280619556,2262,707517,annual_works_count,14
openalex,2026-07-19T13:12:56+00:00,overall,2021,https://openalex.org/I47508984,https://ror.org/041kmwe10,Imperial College London,United Kingdom,GB,London,51.50853,-0.12574,24343,19643,557031,387396,42109070,6.499100243463533,1551,459919,annual_works_count,15
openalex,2026-07-19T13:12:56+00:00,overall,2021,https://openalex.org/I241749,https://ror.org/013meh722,University of Cambridge,United Kingdom,GB,Cambridge,52.2,0.11667,23989,19347,597163,447911,53821365,6.170220088166369,1824,488293,annual_works_count,16
openalex,2026-07-19T13:12:56+00:00,overall,2021,https://openalex.org/I157773358,https://ror.org/0064kty71,Sun Yat-sen University,China,CN,Guangzhou,23.11667,113.25,23946,15492,547726,303692,25314245,4.808857121102524,919,462516,annual_works_count,17
openalex,2026-07-19T13:12:56+00:00,overall,2021,https://openalex.org/I90183372,https://ror.org/04vfs2w97,Université de Lorraine,France,FR,Nancy,48.68439,6.18496,23630,20430,95521,163070,4271677,2.588860423190056,477,78690,annual_works_count,18
openalex,2026-07-19T13:12:56+00:00,overall,2021,https://openalex.org/I27837315,https://ror.org/00jmfr291,University of Michigan,United States,US,Ann Arbor,42.27756,-83.74088,23237,16333,544298,982294,66404268,3.632245289118788,2081,678777,annual_works_count,19
openalex,2026-07-19T13:12:56+00:00,overall,2021,https://openalex.org/I201448701,https://ror.org/00cvxb145,University of Washington,United States,US,Seattle,47.60621,-122.33207,22646,16591,570797,521857,94951274,47.07223154717407,3592,602568,annual_works_count,20
openalex,2026-07-19T13:12:56+00:00,overall,2021,https://openalex.org/I39804081,https://ror.org/02en5vm52,Sorbonne Université,France,FR,Paris,48.85341,2.3488,22108,15810,394290,396106,36791438,4.023153352557971,1483,455550,annual_works_count,21
openalex,2026-07-19T13:12:56+00:00,overall,2021,https://openalex.org/I99065089,https://ror.org/03cve4549,Tsinghua University,China,CN,Beijing,39.9075,116.39723,22053,9666,717301,376649,33405366,6.725398874236517,1179,471531,annual_works_count,22
openalex,2026-07-19T13:12:56+00:00,overall,2021,https://openalex.org/I4210089966,https://ror.org/00a0jsq62,London School of Hygiene & Tropical Medicine,United Kingdom,GB,London,51.52090072631836,-0.1307000070810318,21766,21257,199862,114961,10486831,3.6885162054484764,1059,94535,annual_works_count,23
openalex,2026-07-19T13:12:56+00:00,overall,2021,https://openalex.org/I114027177,https://ror.org/0130frc33,University of North Carolina at Chapel Hill,United States,US,Chapel Hill,35.9132,-79.05584,21416,17365,345090,354825,34837517,2.209221948888934,1593,346430,annual_works_count,24
openalex,2026-07-19T13:12:56+00:00,overall,2021,https://openalex.org/I161318765,https://ror.org/046rm7j60,"University of California, Los Angeles",United States,US,Los Angeles,34.05223,-118.24368,20640,15436,443922,415301,51834662,4.234418793821452,1641,521189,annual_works_count,25
openalex,2026-07-19T13:12:56+00:00,overall,2021,https://openalex.org/I165779595,https://ror.org/01ej9dk98,The University of Melbourne,Australia,AU,Melbourne,-37.814,144.96332,20632,14163,473621,345056,30804922,4.07334254365532,1272,386279,annual_works_count,26
openalex,2026-07-19T13:12:56+00:00,overall,2021,https://openalex.org/I205783295,https://ror.org/05bnh6r87,Cornell University,United States,US,Ithaca,42.44063,-76.49661,20322,14104,504992,472548,56587649,4.98713538098223,1853,558377,annual_works_count,27
openalex,2026-07-19T13:12:56+00:00,overall,2021,https://openalex.org/I74801974,https://ror.org/057zh3y96,The University of Tokyo,Japan,JP,Tokyo,35.68949890136719,139.69171142578125,19843,13863,339156,508159,46787117,4.046595919875026,1389,645707,annual_works_count,28
openalex,2026-07-19T13:12:56+00:00,overall,2021,https://openalex.org/I141945490,https://ror.org/03rmrcq20,University of British Columbia,Canada,CA,Vancouver,49.24966,-123.11934,19501,13398,438311,374948,32396043,3.164244344880341,1334,390770,annual_works_count,29
openalex,2026-07-19T13:12:56+00:00,overall,2021,https://openalex.org/I24185976,https://ror.org/011ashp19,Sichuan University,China,CN,Chengdu,30.66667,104.06667,18995,10864,436916,264073,19963020,5.376935198094574,712,409766,annual_works_count,30
openalex,2026-07-19T13:12:56+00:00,overall,2021,https://openalex.org/I129604602,https://ror.org/0384j8v12,The University of Sydney,Australia,AU,Sydney,-33.86785,151.20732,18570,11631,437495,334397,26953302,4.803487245113999,1277,357174,annual_works_count,31
openalex,2026-07-19T13:12:56+00:00,overall,2021,https://openalex.org/I219193219,https://ror.org/02dqehb95,Purdue University West Lafayette,United States,US,West Lafayette,40.42587,-86.90807,18253,14222,185308,286275,20484825,3.0010843373493974,945,287695,annual_works_count,32
openalex,2026-07-19T13:12:56+00:00,overall,2021,https://openalex.org/I47720641,https://ror.org/00p991c53,Huazhong University of Science and Technology,China,CN,Wuhan,30.58333,114.26667,18250,9782,480746,265561,23789539,5.58811763130268,901,414493,annual_works_count,33
openalex,2026-07-19T13:12:56+00:00,overall,2021,https://openalex.org/I139660479,https://ror.org/00f1zfq44,Central South University,China,CN,Changsha,28.19874,112.97087,17950,10274,453935,254990,18803405,5.703746147467889,716,385430,annual_works_count,34
openalex,2026-07-19T13:12:56+00:00,overall,2021,https://openalex.org/I32971472,https://ror.org/03v76x132,Yale University,United States,US,New Haven,41.30815,-72.92816,17780,12224,433073,410957,51905473,2.5765744997265276,1801,473897,annual_works_count,35
openalex,2026-07-19T13:12:56+00:00,overall,2021,https://openalex.org/I56590836,https://ror.org/02bfwt286,Monash University,Australia,AU,Melbourne,-37.814,144.96332,17778,11835,584745,283351,21685128,4.53849311694354,1086,285028,annual_works_count,36
openalex,2026-07-19T13:12:56+00:00,overall,2021,https://openalex.org/I124055696,https://ror.org/035b05819,University of Copenhagen,Denmark,DK,Copenhagen,55.67594,12.56553,17768,14611,369138,288984,27081072,4.158431784053697,1234,327996,annual_works_count,37
openalex,2026-07-19T13:12:56+00:00,overall,2021,https://openalex.org/I78577930,https://ror.org/00hj8s172,Columbia University,United States,US,New York,40.71427,-74.00597,17474,13121,412602,387006,47447981,4.804211308061117,1723,440176,annual_works_count,38
openalex,2026-07-19T13:12:56+00:00,overall,2021,https://openalex.org/I36258959,https://ror.org/0168r3w48,University of California San Diego,United States,US,San Diego,32.71571,-117.16472,17341,12838,467432,355659,50660392,4.046826724113496,1742,462468,annual_works_count,39
openalex,2026-07-19T13:12:56+00:00,overall,2021,https://openalex.org/I79576946,https://ror.org/00b30xv10,University of Pennsylvania,United States,US,Philadelphia,39.95238,-75.16362,17249,11745,517966,381274,54895634,6.083752294994767,1747,536105,annual_works_count,40
openalex,2026-07-19T13:12:56+00:00,overall,2021,https://openalex.org/I95457486,https://ror.org/01an7q238,"University of California, Berkeley",United States,US,Berkeley,37.87159,-122.27275,17176,13665,408026,450823,56370727,3.917210196023128,1876,493915,annual_works_count,41
openalex,2026-07-19T13:12:56+00:00,overall,2021,https://openalex.org/I24943067,https://ror.org/013q1eq08,Fudan University,China,CN,Shanghai,31.22222,121.45806,17125,10850,415591,242348,20199741,5.18851306377673,858,347197,annual_works_count,42
openalex,2026-07-19T13:12:56+00:00,overall,2021,https://openalex.org/I33213144,https://ror.org/02y3ad647,University of Florida,United States,US,Gainesville,29.65163,-82.32483,17036,11274,297934,361820,30684309,3.0850378442836086,1250,413550,annual_works_count,43
openalex,2026-07-19T13:12:56+00:00,overall,2021,https://openalex.org/I31746571,https://ror.org/03r8z3t63,UNSW Sydney,Australia,AU,Sydney,-33.86785,151.20732,16612,10890,438224,273345,20091565,5.193142302307727,1041,279584,annual_works_count,44
openalex,2026-07-19T13:12:56+00:00,overall,2021,https://openalex.org/I204730241,https://ror.org/05f82e368,Université Paris Cité,France,FR,Paris,48.85341,2.3488,16506,11344,510258,360939,40443958,5.051326962192878,1670,462414,annual_works_count,45
openalex,2026-07-19T13:12:56+00:00,overall,2021,https://openalex.org/I99464096,https://ror.org/05f950310,KU Leuven,Belgium,BE,Leuven,50.87959,4.70093,16363,13062,366914,309364,29046987,3.787423467687415,1309,377206,annual_works_count,46
openalex,2026-07-19T13:12:56+00:00,overall,2021,https://openalex.org/I165932596,https://ror.org/01tgyzw49,National University of Singapore,Singapore,SG,Singapore,1.28967,103.85007,16345,9782,476885,279431,24968185,6.511523493025125,1090,324075,annual_works_count,47
openalex,2026-07-19T13:12:56+00:00,overall,2021,https://openalex.org/I183935753,https://ror.org/0220mzb33,King's College London,United Kingdom,GB,London,51.50853,-0.12574,15857,12346,399045,260530,22819015,3.8004042500297244,1242,245530,annual_works_count,48
openalex,2026-07-19T13:12:56+00:00,overall,2021,https://openalex.org/I165143802,https://ror.org/00rqy9422,The University of Queensland,Australia,AU,Brisbane,-27.46794,153.02809,15675,9580,401120,277859,27442707,4.631732633991537,1466,311498,annual_works_count,49
openalex,2026-07-19T13:12:56+00:00,overall,2021,https://openalex.org/I223822909,https://ror.org/038t36y30,Heidelberg University,Germany,DE,Heidelberg,49.40768,8.69079,15404,12034,394015,318927,42678021,4.168912002271488,1602,480279,annual_works_count,50
openalex,2026-07-19T13:12:56+00:00,overall,2021,https://openalex.org/I180670191,https://ror.org/043mz5j54,"University of California, San Francisco",United States,US,San Francisco,37.77493,-122.41942,15279,11389,425194,298021,49215559,4.9805782292272065,1703,439937,annual_works_count,51
openalex,2026-07-19T13:12:56+00:00,overall,2021,https://openalex.org/I200296433,https://ror.org/02drdmm93,Chinese Academy of Medical Sciences & Peking Union Medical College,China,CN,Beijing,39.9075,116.39723,15074,10651,318954,197255,17542720,4.259007526968453,1025,289052,annual_works_count,52
openalex,2026-07-19T13:12:56+00:00,overall,2021,https://openalex.org/I277688954,https://ror.org/03xjwb503,Université Paris-Saclay,France,FR,Gif-sur-Yvette,48.68333,2.13333,15057,11235,307686,167000,15041769,3.780933195168081,1109,206700,annual_works_count,53
openalex,2026-07-19T13:12:56+00:00,overall,2021,https://openalex.org/I8204097,https://ror.org/05591te55,Ludwig-Maximilians-Universität München,Germany,DE,Munich,48.13743,11.57549,15024,11706,292603,276934,28969699,3.7339217719379265,1142,351744,annual_works_count,54
openalex,2026-07-19T13:12:56+00:00,overall,2021,https://openalex.org/I52357470,https://ror.org/00rs6vg23,The Ohio State University,United States,US,Columbus,39.96118,-82.99879,14870,9559,281226,371774,29161773,3.4034351062213832,1190,379866,annual_works_count,55
openalex,2026-07-19T13:12:56+00:00,overall,2021,https://openalex.org/I35440088,https://ror.org/05a28rw58,ETH Zurich,Switzerland,CH,Zurich,47.36667,8.55,14719,12342,362439,247076,26965222,3.6387697457893085,1171,317739,annual_works_count,56
openalex,2026-07-19T13:12:56+00:00,overall,2021,https://openalex.org/I8961855,https://ror.org/01tmp8f25,Universidad Nacional Autónoma de México,Mexico,MX,Mexico City,19.42847,-99.12766,14542,11029,143304,250256,9121305,2.0736477048311737,642,165925,annual_works_count,57
openalex,2026-07-19T13:12:56+00:00,overall,2021,https://openalex.org/I98677209,https://ror.org/01nrxwf90,University of Edinburgh,United Kingdom,GB,Edinburgh,55.95206,-3.19648,14516,12137,334672,281716,26147137,4.104933838251937,1330,282167,annual_works_count,58
openalex,2026-07-19T13:12:56+00:00,overall,2021,https://openalex.org/I28407311,https://ror.org/027m9bs27,University of Manchester,United Kingdom,GB,Manchester,53.48095,-2.23743,14484,11370,319767,314397,28928493,3.8099037831847262,1237,354156,annual_works_count,59
openalex,2026-07-19T13:12:56+00:00,overall,2021,https://openalex.org/I135310074,https://ror.org/01y2jtd41,University of Wisconsin–Madison,United States,US,Madison,43.07305,-89.40123,14426,9897,287772,374723,43268106,3.7869131781340313,1424,502850,annual_works_count,60
openalex,2026-07-19T13:12:56+00:00,overall,2021,https://openalex.org/I137902535,https://ror.org/04tj63d06,North Carolina State University,United States,US,Raleigh,35.7721,-78.63861,14410,10882,140563,184434,12238780,3.3367450061281096,821,181633,annual_works_count,61
openalex,2026-07-19T13:12:56+00:00,overall,2021,https://openalex.org/I5023651,https://ror.org/01pxwe438,McGill University,Canada,CA,Montreal,45.50884,-73.58781,14203,9701,314976,296965,27391298,3.9382953152983315,1225,331459,annual_works_count,62
openalex,2026-07-19T13:12:56+00:00,overall,2021,https://openalex.org/I4432739,https://ror.org/03zga2b32,University of Bergen,Norway,NO,Bergen,60.39299,5.32415,14202,13462,113638,211873,9248128,1.874098649243373,762,122270,annual_works_count,63
openalex,2026-07-19T13:12:56+00:00,overall,2021,https://openalex.org/I84218800,https://ror.org/05rrcem69,"University of California, Davis",United States,US,Davis,38.54491,-121.74052,14159,10590,261295,300016,29676386,3.3377497153503777,1214,377904,annual_works_count,64
openalex,2026-07-19T13:12:56+00:00,overall,2021,https://openalex.org/I170897317,https://ror.org/00py81415,Duke University,United States,US,Durham,35.99403,-78.89862,14141,9989,294152,269429,29879170,3.570359454765539,1408,306598,annual_works_count,65
openalex,2026-07-19T13:12:56+00:00,overall,2021,https://openalex.org/I126520041,https://ror.org/04c4dkn09,University of Science and Technology of China,China,CN,Hefei,31.86389,117.28083,14138,6037,448156,208179,23035230,6.394567072928659,973,354238,annual_works_count,66
openalex,2026-07-19T13:12:56+00:00,overall,2021,https://openalex.org/I37461747,https://ror.org/033vjfk17,Wuhan University,China,CN,Wuhan,30.583330154418945,114.26667022705078,13999,7926,379788,226910,17220916,5.067294085554021,869,297477,annual_works_count,67
openalex,2026-07-19T13:12:56+00:00,overall,2021,https://openalex.org/I22299242,https://ror.org/02kpeqv85,Kyoto University,Japan,JP,Kyoto,35.02107,135.75385,13913,9757,207808,359337,30242719,2.9801716484166914,1119,449634,annual_works_count,68
openalex,2026-07-19T13:12:56+00:00,overall,2021,https://openalex.org/I130769515,https://ror.org/04p491231,Pennsylvania State University,United States,US,State College,40.79339,-77.86,13766,8854,278238,335116,27586539,4.082826031038326,1262,327269,annual_works_count,69
openalex,2026-07-19T13:12:56+00:00,overall,2021,https://openalex.org/I87445476,https://ror.org/017zhmm22,Xi'an Jiaotong University,China,CN,Xi'an,34.25833,108.92861,13642,5403,373299,204731,13232257,5.48902252929484,643,267722,annual_works_count,70
openalex,2026-07-19T13:12:56+00:00,overall,2021,https://openalex.org/I154099455,https://ror.org/0207yh398,Shandong University,China,CN,Jinan,36.66833,116.99722,13391,6825,310454,199814,14636920,5.248358226303249,591,297527,annual_works_count,71
openalex,2026-07-19T13:12:56+00:00,overall,2021,https://openalex.org/I63966007,https://ror.org/042nb2s44,Massachusetts Institute of Technology,United States,US,Cambridge,42.3751,-71.10561,13261,10694,402119,348171,64828785,7.0150534958945014,2261,477360,annual_works_count,72
openalex,2026-07-19T13:12:56+00:00,overall,2021,https://openalex.org/I861853513,https://ror.org/02be6w209,Sapienza University of Rome,Italy,IT,Rome,41.89193,12.51133,13225,9682,254457,252236,20493540,3.607031635714557,1089,314496,annual_works_count,73
openalex,2026-07-19T13:12:56+00:00,overall,2021,https://openalex.org/I40347166,https://ror.org/024mw5h28,University of Chicago,United States,US,Chicago,41.85003,-87.65005,13137,9918,288298,309299,34694409,4.2597475771917965,1635,322432,annual_works_count,74
openalex,2026-07-19T13:12:56+00:00,overall,2021,https://openalex.org/I159176309,https://ror.org/00g30e956,Universität Hamburg,Germany,DE,Hamburg,53.55073,9.99302,12998,9395,254469,225077,20424329,3.682725002256793,1032,277910,annual_works_count,75
openalex,2026-07-19T13:12:56+00:00,overall,2021,https://openalex.org/I154425047,https://ror.org/0160cpw27,University of Alberta,Canada,CA,Edmonton,53.55014,-113.46871,12968,7896,268327,264841,21052129,3.727471798274718,1071,296269,annual_works_count,76
openalex,2026-07-19T13:12:56+00:00,overall,2021,https://openalex.org/I71999127,https://ror.org/021018s57,Universitat de Barcelona,Spain,ES,Barcelona,41.38879,2.15899,12922,10637,228906,190771,16857557,3.556009980953506,998,232557,annual_works_count,77
openalex,2026-07-19T13:12:56+00:00,overall,2021,https://openalex.org/I887968799,https://ror.org/04xfq0f34,RWTH Aachen University,Germany,DE,Aachen,50.77664,6.08342,12914,10087,176701,192785,17454871,2.447912844223728,893,250381,annual_works_count,78
openalex,2026-07-19T13:12:56+00:00,overall,2021,https://openalex.org/I57206974,https://ror.org/0190ak572,New York University,United States,US,New York,40.71427,-74.00597,12772,8727,306564,276763,26848678,3.86483404214878,1382,269726,annual_works_count,79
openalex,2026-07-19T13:12:56+00:00,overall,2021,https://openalex.org/I879563668,https://ror.org/00987cb86,Universidade Estadual Paulista (Unesp),Brazil,BR,São Paulo,-23.5475,-46.63611,12713,11735,111680,206632,7196143,1.6440605387466714,451,169281,annual_works_count,80
openalex,2026-07-19T13:12:56+00:00,overall,2021,https://openalex.org/I28166907,https://ror.org/056d84691,Karolinska Institutet,Sweden,SE,Stockholm,59.32938,18.06871,12694,10806,323871,234193,30470334,3.8604790784760663,1451,354320,annual_works_count,81
openalex,2026-07-19T13:12:56+00:00,overall,2021,https://openalex.org/I204465549,https://ror.org/01yc7t268,Washington University in St. Louis,United States,US,St Louis,38.62727,-90.19789,12694,9026,320420,255440,40417977,4.332501559575795,1855,323360,annual_works_count,81
openalex,2026-07-19T13:12:56+00:00,overall,2021,https://openalex.org/I19880235,https://ror.org/010pmpe69,Lomonosov Moscow State University,Russia,RU,Moscow,55.75222,37.61556,12678,7346,114963,203955,9103042,1.5683474787818272,723,159116,annual_works_count,83
openalex,2026-07-19T13:12:56+00:00,overall,2021,https://openalex.org/I204983213,https://ror.org/01yqg2h08,Harbin Institute of Technology,China,CN,Harbin,45.75,126.6500015258789,12589,3809,334418,223089,14258110,5.805072455360769,612,284969,annual_works_count,84
openalex,2026-07-19T13:12:56+00:00,overall,2021,https://openalex.org/I62916508,https://ror.org/02kkvpp62,Technical University of Munich,Germany,DE,Munich,48.13743,11.57549,12581,9072,277647,227478,18818406,3.916105262134601,1021,261561,annual_works_count,85
openalex,2026-07-19T13:12:56+00:00,overall,2021,https://openalex.org/I116953780,https://ror.org/03rc6as71,Tongji University,China,CN,Shanghai,31.222219467163086,121.45806121826172,12560,6194,306922,191854,10666670,5.044627688227738,592,204294,annual_works_count,86
openalex,2026-07-19T13:12:56+00:00,overall,2021,https://openalex.org/I130238516,https://ror.org/017zqws13,University of Minnesota,United States,US,Minneapolis,44.97997,-93.26384,12539,7982,310014,336910,36841491,3.956076199463301,1400,432605,annual_works_count,87
openalex,2026-07-19T13:12:56+00:00,overall,2021,https://openalex.org/I170201317,https://ror.org/01an3r305,University of Pittsburgh,United States,US,Pittsburgh,40.44062,-79.99589,12537,8639,296179,296645,33961227,3.748410063181123,1331,386473,annual_works_count,88
openalex,2026-07-19T13:12:56+00:00,overall,2021,https://openalex.org/I189158943,https://ror.org/00wjc7c48,University of Milan,Italy,IT,Milan,45.464271545410156,9.189510345458984,12484,9756,274376,378908,18549988,0.3570443958866507,941,280357,annual_works_count,89
openalex,2026-07-19T13:12:56+00:00,overall,2021,https://openalex.org/I150468666,https://ror.org/03czfpz43,Emory University,United States,US,Atlanta,33.749000549316406,-84.38797760009766,12370,8415,295616,227743,23571400,3.16907238491492,1194,263825,annual_works_count,90
openalex,2026-07-19T13:12:56+00:00,overall,2021,https://openalex.org/I157725225,https://ror.org/047426m28,University of Illinois Urbana-Champaign,United States,US,Urbana,40.11059,-88.20727,12344,7854,245895,332385,32469877,3.693807146099475,1391,380540,annual_works_count,91
openalex,2026-07-19T13:12:56+00:00,overall,2021,https://openalex.org/I889458895,https://ror.org/02zhqgq86,University of Hong Kong,Hong Kong,HK,Pok Fu Lam,22.26861,114.12924,12298,7299,361557,230607,22031918,5.034821762297575,1166,273730,annual_works_count,92
openalex,2026-07-19T13:12:56+00:00,overall,2021,https://openalex.org/I1174212,https://ror.org/03taz7m60,University of Southern California,United States,US,Los Angeles,34.05223,-118.24368,12263,8035,263894,274157,27886014,3.772486630657678,1461,306296,annual_works_count,93
openalex,2026-07-19T13:12:56+00:00,overall,2021,https://openalex.org/I204337017,https://ror.org/01aj84f44,Aarhus University,Denmark,DK,Aarhus,56.15674,10.21076,12238,8509,205610,226308,12845634,3.2993979836077463,863,178040,annual_works_count,94
openalex,2026-07-19T13:12:56+00:00,overall,2021,https://openalex.org/I887064364,https://ror.org/04dkp9463,University of Amsterdam,The Netherlands,NL,Amsterdam,52.37403,4.88969,12220,10781,439158,237373,25420232,3.80303831073856,1154,313063,annual_works_count,95
openalex,2026-07-19T13:12:56+00:00,overall,2021,https://openalex.org/I530967,https://ror.org/05g13zd79,Toronto Metropolitan University,Canada,CA,Toronto,43.70643,-79.39864,12220,8830,48727,55705,1498479,2.617538510911425,312,28440,annual_works_count,95
openalex,2026-07-19T13:12:56+00:00,overall,2021,https://openalex.org/I133731052,https://ror.org/040af2s02,University of Helsinki,Finland,FI,Helsinki,60.16952,24.93545,12197,10580,247918,221579,21675313,3.0656081006171547,1168,267717,annual_works_count,97
openalex,2026-07-19T13:12:56+00:00,overall,2021,https://openalex.org/I139264467,https://ror.org/04h9pn542,Seoul National University,South Korea,KR,Seoul,37.566,126.9784,12063,7825,302470,243952,21397017,3.7929394297654726,970,357252,annual_works_count,98
openalex,2026-07-19T13:12:56+00:00,overall,2021,https://openalex.org/I202697423,https://ror.org/02crff812,University of Zurich,Switzerland,CH,Zurich,47.36667,8.55,12005,10100,255539,202737,20809448,7.405176876617774,1115,253164,annual_works_count,99
openalex,2026-07-19T13:12:56+00:00,overall,2021,https://openalex.org/I9360294,https://ror.org/01111rn36,University of Bologna,Italy,IT,Bologna,44.49381,11.33875,11916,9575,222814,221955,18621835,3.087850805721528,901,293211,annual_works_count,100
openalex,2026-07-19T13:12:56+00:00,overall,2021,https://openalex.org/I138689650,https://ror.org/00240q980,University of Padua,Italy,IT,Padua,45.40797,11.88586,11872,8926,260780,212706,19804648,3.3260692402885517,1123,287239,annual_works_count,101
openalex,2026-07-19T13:12:56+00:00,overall,2021,https://openalex.org/I184942183,https://ror.org/01xtthb56,University of Oslo,Norway,NO,Oslo,59.91273,10.74609,11845,10447,212873,189841,15755479,3.004359581966217,998,207474,annual_works_count,102
openalex,2026-07-19T13:12:56+00:00,overall,2021,https://openalex.org/I86519309,https://ror.org/00hj54h04,The University of Texas at Austin,United States,US,Austin,30.26715,-97.74306,11825,7393,241005,355484,23909344,0.7968723065151713,1210,281733,annual_works_count,103
openalex,2026-07-19T13:12:56+00:00,overall,2021,https://openalex.org/I111979921,https://ror.org/000e0be47,Northwestern University,United States,US,Evanston,42.04114,-87.69006,11677,7459,392888,261171,35825079,5.645611912027781,1444,374081,annual_works_count,104
openalex,2026-07-19T13:12:56+00:00,overall,2021,https://openalex.org/I193662353,https://ror.org/04pp8hn57,Utrecht University,The Netherlands,NL,Utrecht,52.09083,5.12222,11516,10301,271362,237233,20467721,4.1822454947713315,1089,254417,annual_works_count,105
openalex,2026-07-19T13:12:56+00:00,overall,2021,https://openalex.org/I181391015,https://ror.org/04wffgt70,Universidade Estadual de Campinas (UNICAMP),Brazil,BR,Campinas,-22.90556,-47.06083,11498,8275,125678,209310,8249330,1.8429191099686721,572,167263,annual_works_count,106
openalex,2026-07-19T13:12:56+00:00,overall,2021,https://openalex.org/I122140584,https://ror.org/03490as77,Universidade Federal do Rio de Janeiro,Brazil,BR,Rio de Janeiro,-22.90642,-43.18223,11365,8507,107974,178884,7915918,1.865178612128303,575,148135,annual_works_count,107
openalex,2026-07-19T13:12:56+00:00,overall,2021,https://openalex.org/I162868743,https://ror.org/012tb2g32,Tianjin University,China,CN,Tianjin,39.14221954345703,117.17666625976562,11331,3766,326312,170526,12502116,5.912798779198018,611,237664,annual_works_count,108
openalex,2026-07-19T13:12:56+00:00,overall,2021,https://openalex.org/I145872427,https://ror.org/016xsfp80,Radboud University Nijmegen,The Netherlands,NL,Nijmegen,51.8425,5.85278,11279,9540,270380,207306,24959519,3.9364504095477053,1254,299972,annual_works_count,109
openalex,2026-07-19T13:12:56+00:00,overall,2021,https://openalex.org/I194450716,https://ror.org/00js3aw79,Jilin University,China,CN,Changchun,43.88,125.32278,11259,5700,249113,183721,14611481,5.684822286263208,625,302556,annual_works_count,110
openalex,2026-07-19T13:12:56+00:00,overall,2021,https://openalex.org/I100532134,https://ror.org/029brtt94,Université Claude Bernard Lyon 1,France,FR,Villeurbanne,45.76601,4.8795,11035,7485,201137,210401,17833033,3.33592175826901,987,262159,annual_works_count,111
openalex,2026-07-19T13:12:56+00:00,overall,2021,https://openalex.org/I223532165,https://ror.org/03r0ha626,University of Utah,United States,US,Salt Lake City,40.76078,-111.89105,10985,7218,223524,221126,20589479,3.1053965902778766,1116,245463,annual_works_count,112
openalex,2026-07-19T13:12:56+00:00,overall,2021,https://openalex.org/I187531555,https://ror.org/012a77v79,Lund University,Sweden,SE,Lund,55.705841064453125,13.193209648132324,10937,9094,224487,235413,22224211,3.362402620640295,1076,303881,annual_works_count,113
openalex,2026-07-19T13:12:56+00:00,overall,2021,https://openalex.org/I141596103,https://ror.org/01c27hj86,University of Lisbon,Portugal,PT,Lisbon,38.72509,-9.1498,10910,7787,197330,150921,7974232,3.3683117360536716,612,137797,annual_works_count,114
openalex,2026-07-19T13:12:56+00:00,overall,2021,https://openalex.org/I91045830,https://ror.org/01f5ytq51,Texas A&M University,United States,US,College Station,30.62798,-96.33441,10906,6319,213567,244674,18809698,3.4292551641857303,1042,272389,annual_works_count,115
openalex,2026-07-19T13:12:56+00:00,overall,2021,https://openalex.org/I168635309,https://ror.org/03yjb2x39,University of Calgary,Canada,CA,Calgary,51.05011,-114.08529,10891,6894,213678,197881,14501347,3.72959784620562,917,200021,annual_works_count,116
openalex,2026-07-19T13:12:56+00:00,overall,2021,https://openalex.org/I130442723,https://ror.org/041yk2d64,Universidade Federal do Rio Grande do Sul,Brazil,BR,Porto Alegre,-30.03283,-51.23019,10870,8289,120119,176134,6789743,1.752053116100404,547,138011,annual_works_count,117
openalex,2026-07-19T13:12:56+00:00,overall,2021,https://openalex.org/I138006243,https://ror.org/03m2x1q45,University of Arizona,United States,US,Tucson,32.22174,-110.92648,10753,7122,209813,260639,23010707,3.900458570524984,1271,269005,annual_works_count,118
openalex,2026-07-19T13:12:56+00:00,overall,2021,https://openalex.org/I183519381,https://ror.org/013xs5b60,Capital Medical University,China,CN,Beijing,39.9075,116.39723,10751,8104,180988,133771,8226868,3.3846943516117913,627,172828,annual_works_count,119
openalex,2026-07-19T13:12:56+00:00,overall,2021,https://openalex.org/I146655781,https://ror.org/04xs57h96,University of Liverpool,United Kingdom,GB,Liverpool,53.41058,-2.97794,10687,8053,224370,221764,17889532,3.733303605554848,1082,242188,annual_works_count,120
openalex,2026-07-19T13:12:56+00:00,overall,2021,https://openalex.org/I899635006,https://ror.org/02rx3b187,Université Grenoble Alpes,France,FR,Saint-Martin-d'Hères,45.1787,5.76281,10668,7540,178029,162549,11009857,1.9940156912977343,805,162699,annual_works_count,121
openalex,2026-07-19T13:12:56+00:00,overall,2021,https://openalex.org/I102322142,https://ror.org/05vt9qd57,"Rutgers, The State University of New Jersey",United States,US,New Brunswick,40.48622,-74.45182,10642,6361,222652,251736,21543872,3.6161238489586554,1136,272581,annual_works_count,122
openalex,2026-07-19T13:12:56+00:00,overall,2021,https://openalex.org/I881766915,https://ror.org/01rxvg760,Nanjing University,China,CN,Nanjing,32.061668395996094,118.77777862548828,10609,5247,294426,186538,16918515,6.152674060834578,829,282079,annual_works_count,123
openalex,2026-07-19T13:12:56+00:00,overall,2021,https://openalex.org/I28022161,https://ror.org/02f81g417,King Saud University,Saudi Arabia,SA,Riyadh,24.68773,46.72185,10591,7230,264556,148513,6371727,5.266167969202642,474,134081,annual_works_count,124
openalex,2026-07-19T13:12:56+00:00,overall,2021,https://openalex.org/I87216513,https://ror.org/05hs6h993,Michigan State University,United States,US,East Lansing,42.73698,-84.48387,10586,6864,212590,247979,20006042,2.663454155524372,1072,257632,annual_works_count,125
openalex,2026-07-19T13:12:56+00:00,overall,2021,https://openalex.org/I76569877,https://ror.org/04ct4d772,Southeast University,China,CN,Nanjing,32.06167,118.77778,10580,3472,276017,160039,9398587,5.4626872808415685,594,185310,annual_works_count,126
openalex,2026-07-19T13:12:56+00:00,overall,2021,https://openalex.org/I172675005,https://ror.org/02e7b5302,Nanyang Technological University,Singapore,SG,Singapore,1.28967,103.85007,10564,5663,343421,194507,17615215,6.807464273748306,968,225509,annual_works_count,127
openalex,2026-07-19T13:12:56+00:00,overall,2021,https://openalex.org/I38877650,https://ror.org/04ypx8c21,Zhengzhou University,China,CN,Zhengzhou,34.75777816772461,113.64861297607422,10551,5296,340537,120823,7323411,5.675632477494065,490,153246,annual_works_count,128
openalex,2026-07-19T13:12:56+00:00,overall,2021,https://openalex.org/I169381384,https://ror.org/012p63287,University of Groningen,The Netherlands,NL,Groningen,53.21917,6.56667,10548,9758,273611,182172,20375313,4.467348600148656,1262,247709,annual_works_count,129
openalex,2026-07-19T13:12:56+00:00,overall,2021,https://openalex.org/I79619799,https://ror.org/03angcq70,University of Birmingham,United Kingdom,GB,Birmingham,52.48142,-1.89983,10505,8236,249791,217722,22931678,4.815741018284589,1194,258008,annual_works_count,130
openalex,2026-07-19T13:12:56+00:00,overall,2021,https://openalex.org/I150229711,https://ror.org/04qr3zq92,University of Electronic Science and Technology of China,China,CN,Chengdu,30.666669845581055,104.0666732788086,10445,3792,243889,144548,7601726,4.588519536782471,520,147190,annual_works_count,131
openalex,2026-07-19T13:12:56+00:00,overall,2021,https://openalex.org/I36234482,https://ror.org/0524sp257,University of Bristol,United Kingdom,GB,Bristol,51.45523,-2.59665,10412,8524,370891,215481,21630291,3.236909050805088,1175,236961,annual_works_count,132
openalex,2026-07-19T13:12:56+00:00,overall,2021,https://openalex.org/I123387679,https://ror.org/048a87296,Uppsala University,Sweden,SE,Uppsala,59.85882,17.63889,10395,8854,206323,204466,18205731,3.3276890484847574,1038,235293,annual_works_count,133
openalex,2026-07-19T13:12:56+00:00,overall,2021,https://openalex.org/I193775966,https://ror.org/01wjejq96,Yonsei University,South Korea,KR,Seoul,37.566,126.9784,10278,7384,273925,180136,13420787,3.9606467694615404,687,255213,annual_works_count,134
openalex,2026-07-19T13:12:56+00:00,overall,2021,https://openalex.org/I74656192,https://ror.org/01y9bpm73,University of Göttingen,Germany,DE,Göttingen,51.53443,9.93228,10218,9400,140530,167053,13541364,2.1184111916062953,866,182559,annual_works_count,135
openalex,2026-07-19T13:12:56+00:00,overall,2021,https://openalex.org/I201537933,https://ror.org/01dq60k83,Tohoku University,Japan,JP,Sendai,38.26667,140.86667,10201,6734,143139,278485,18880281,3.0846823502008966,867,341304,annual_works_count,136
openalex,2026-07-19T13:12:56+00:00,overall,2021,https://openalex.org/I19894307,https://ror.org/051escj72,Université de Montpellier,France,FR,Montpellier,43.61093,3.87635,10102,7565,189416,143493,9730490,3.0789169246162023,753,147509,annual_works_count,137
openalex,2026-07-19T13:12:56+00:00,overall,2021,https://openalex.org/I55732556,https://ror.org/03efmqc40,Arizona State University,United States,US,Tempe,33.41477,-111.90931,10003,6133,177893,194930,13999422,3.5700136612021858,968,167119,annual_works_count,138
openalex,2026-07-19T13:12:56+00:00,overall,2021,https://openalex.org/I177725633,https://ror.org/00t33hh48,Chinese University of Hong Kong,Hong Kong,HK,Hong Kong,22.27832,114.17469,9968,5939,300678,197855,17663371,3.300959780621572,1106,226403,annual_works_count,139
openalex,2026-07-19T13:12:56+00:00,overall,2021,https://openalex.org/I98704320,https://ror.org/04a9tmd77,Icahn School of Medicine at Mount Sinai,United States,US,New York,40.71427,-74.00597,9876,6893,284590,155576,19650499,4.581050796812749,1230,190470,annual_works_count,140
openalex,2026-07-19T13:12:56+00:00,overall,2021,https://openalex.org/I204250578,https://ror.org/04gyf1771,"University of California, Irvine",United States,US,Irvine,33.66946,-117.82311,9835,7026,213625,192782,20250362,3.9548951811357194,1135,228846,annual_works_count,141
openalex,2026-07-19T13:12:56+00:00,overall,2021,https://openalex.org/I16391192,https://ror.org/04mhzgx49,Tel Aviv University,Israel,IL,Tel Aviv,32.08088,34.78057,9816,6092,199235,206138,17236328,3.5006612940201385,920,255879,annual_works_count,142
openalex,2026-07-19T13:12:56+00:00,overall,2021,https://openalex.org/I204778367,https://ror.org/05xg72x27,Norwegian University of Science and Technology,Norway,NO,Trondheim,63.43049,10.39506,9782,8245,192289,137629,7621519,2.595283314891579,721,116453,annual_works_count,143
openalex,2026-07-19T13:12:56+00:00,overall,2021,https://openalex.org/I177877127,https://ror.org/047272k79,The University of Western Australia,Australia,AU,Perth,-31.95224,115.8614,9771,7042,198971,158001,13385631,4.603365555056604,988,172518,annual_works_count,144
openalex,2026-07-19T13:12:56+00:00,overall,2021,https://openalex.org/I145487455,https://ror.org/03q21mh05,Cairo University,Egypt,EG,Giza,30.027599334716797,31.210140228271484,9702,6691,138288,132396,3700306,2.6106156083373726,536,83229,annual_works_count,145
openalex,2026-07-19T13:12:56+00:00,overall,2021,https://openalex.org/I182534213,https://ror.org/043pwc612,Universidade do Porto,Portugal,PT,Porto,41.1485,-8.61097,9660,6877,179532,148769,8155171,3.2416456211812625,616,145757,annual_works_count,146
openalex,2026-07-19T13:12:56+00:00,overall,2021,https://openalex.org/I123044942,https://ror.org/052g8jq94,Universitat Autònoma de Barcelona,Spain,ES,Cerdanyola del Vallès,41.4910888671875,2.1407899856567383,9618,7589,178884,159455,12598880,3.541238598175708,779,185083,annual_works_count,147
openalex,2026-07-19T13:12:56+00:00,overall,2021,https://openalex.org/I98251732,https://ror.org/02fa3aq29,McMaster University,Canada,CA,Hamilton,43.25011,-79.84963,9616,6278,354762,182590,18268287,3.9017803055798614,1183,201546,annual_works_count,148
openalex,2026-07-19T13:12:56+00:00,overall,2021,https://openalex.org/I130828816,https://ror.org/024mrxd33,University of Leeds,United Kingdom,GB,Leeds,53.79648,-1.54785,9603,7174,198671,195765,13854929,3.2439456913272373,938,180960,annual_works_count,149
openalex,2026-07-19T13:12:56+00:00,overall,2021,https://openalex.org/I98285908,https://ror.org/035t8zc32,The University of Osaka,Japan,JP,Osaka,34.69379,135.50107,9509,6003,162196,289147,25697759,3.1927394315739193,1096,405640,annual_works_count,150
openalex,2026-07-19T13:12:56+00:00,overall,2021,https://openalex.org/I102335020,https://ror.org/04t3en479,Karlsruhe Institute of Technology,Germany,DE,Karlsruhe,49.00937,8.40444,9483,7506,133779,167509,11314234,2.8895738271667706,751,179541,annual_works_count,151
openalex,2026-07-19T13:12:56+00:00,overall,2021,https://openalex.org/I66946132,https://ror.org/047s2c258,"University of Maryland, College Park",United States,US,College Park,38.98067,-76.93692,9468,6452,236146,242408,24244177,4.020886724756535,1344,254919,annual_works_count,152
openalex,2026-07-19T13:12:56+00:00,overall,2021,https://openalex.org/I90610280,https://ror.org/0530pts50,South China University of Technology,China,CN,Guangzhou,23.116670608520508,113.25,9460,3296,284532,153929,11332997,6.161630065655422,582,201752,annual_works_count,153
openalex,2026-07-19T13:12:56+00:00,overall,2021,https://openalex.org/I21491767,https://ror.org/035xkbk20,Aix-Marseille Université,France,FR,Marseille,43.29695,5.38107,9459,6501,160717,145909,11261056,2.3100762676073834,792,156772,annual_works_count,154
openalex,2026-07-19T13:12:56+00:00,overall,2021,https://openalex.org/I118564535,https://ror.org/02k7v4d05,University of Bern,Switzerland,CH,Bern,46.94809,7.44744,9456,7939,213016,154678,14268933,3.6307525717379536,911,183970,annual_works_count,155
openalex,2026-07-19T13:12:56+00:00,overall,2021,https://openalex.org/I153718931,https://ror.org/03c4mmv16,University of Ottawa,Canada,CA,Ottawa,45.41117,-75.69812,9372,6041,319867,165534,12210160,3.3156128612393485,859,157280,annual_works_count,156
openalex,2026-07-19T13:12:56+00:00,overall,2021,https://openalex.org/I158842170,https://ror.org/023rhb549,Chongqing University,China,CN,Chongqing,29.56026,106.55771,9319,3445,251371,141594,8290334,5.707342963170543,483,170280,annual_works_count,157
openalex,2026-07-19T13:12:56+00:00,overall,2021,https://openalex.org/I110200422,https://ror.org/0176yjw32,Universidade Federal de Minas Gerais,Brazil,BR,Belo Horizonte,-19.871904373168945,-43.96624755859375,9319,6830,92697,142711,5916613,1.843350724450403,496,123546,annual_works_count,157
openalex,2026-07-19T13:12:56+00:00,overall,2021,https://openalex.org/I7882870,https://ror.org/00vtgdb53,University of Glasgow,United Kingdom,GB,Glasgow,55.86515,-4.25763,9308,8020,245134,193634,23342341,4.665662276341949,1458,223629,annual_works_count,159
openalex,2026-07-19T13:12:56+00:00,overall,2021,https://openalex.org/I32597200,https://ror.org/00cv9y106,Ghent University,Belgium,BE,Ghent,51.05,3.71667,9261,7099,224935,169316,16575038,4.4357803913144656,912,238787,annual_works_count,160
openalex,2026-07-19T13:12:56+00:00,overall,2021,https://openalex.org/I121748325,https://ror.org/02p0gd045,Universidad Complutense de Madrid,Spain,ES,Madrid,40.4165,-3.70256,9146,7016,119822,166161,8013733,2.432962596175821,611,144640,annual_works_count,161
openalex,2026-07-19T13:12:56+00:00,overall,2021,https://openalex.org/I125839683,https://ror.org/01skt4w74,Beijing Institute of Technology,China,CN,Beijing,39.9075,116.39723,9123,2998,259630,139169,7897477,5.588825735670737,579,148456,annual_works_count,162
openalex,2026-07-19T13:12:56+00:00,overall,2021,https://openalex.org/I98358874,https://ror.org/02e2c7k09,Delft University of Technology,The Netherlands,NL,Delft,52.00667,4.35556,9115,7379,172550,175218,10973786,3.2313322853212814,794,162870,annual_works_count,163
openalex,2026-07-19T13:12:56+00:00,overall,2021,https://openalex.org/I82880672,https://ror.org/00wk2mp56,Beihang University,China,CN,Beijing,39.9075,116.39723,9051,3470,218302,151649,7798303,5.141982339915618,562,153356,annual_works_count,164
openalex,2026-07-19T13:12:56+00:00,overall,2021,https://openalex.org/I135598925,https://ror.org/00p4k0j84,Kyushu University,Japan,JP,Fukuoka,33.6,130.41667,9043,6251,118398,230535,14283332,2.5546125395322243,701,264484,annual_works_count,165
openalex,2026-07-19T13:12:56+00:00,overall,2021,https://openalex.org/I118347636,https://ror.org/019wvm592,Australian National University,Australia,AU,Canberra,-35.2834587097168,149.12806701660156,9024,5990,179880,192747,14656752,4.353211618698344,1070,168839,annual_works_count,166
openalex,2026-07-19T13:12:56+00:00,overall,2021,https://openalex.org/I111088046,https://ror.org/05qwgg493,Boston University,United States,US,Boston,42.35843,-71.05977,9021,6179,215803,199141,24715024,4.147522053534244,1356,250088,annual_works_count,167
openalex,2026-07-19T13:12:56+00:00,overall,2021,https://openalex.org/I142263535,https://ror.org/01ee9ar58,University of Nottingham,United Kingdom,GB,Nottingham,52.9536,-1.15047,8988,7059,206941,187649,13645836,3.762139971900246,866,192650,annual_works_count,168
openalex,2026-07-19T13:12:56+00:00,overall,2021,https://openalex.org/I70640408,https://ror.org/01c4pz451,Tehran University of Medical Sciences,Iran,IR,Tehran,35.69438934326172,51.4215087890625,8936,6261,130315,110537,6434030,3.953513193976913,750,118567,annual_works_count,169
openalex,2026-07-19T13:12:56+00:00,overall,2021,https://openalex.org/I130701444,https://ror.org/01zkghx44,Georgia Institute of Technology,United States,US,Atlanta,33.749,-84.38798,8915,4836,217715,196417,18056587,4.191852996481299,1136,207607,annual_works_count,170
openalex,2026-07-19T13:12:56+00:00,overall,2021,https://openalex.org/I3923682,https://ror.org/05t8y2r12,Soochow University,China,CN,Suzhou,31.30408,120.59538,8857,4630,221441,124473,11144687,5.5550695857677415,638,202276,annual_works_count,171
openalex,2026-07-19T13:12:56+00:00,overall,2021,https://openalex.org/I29617571,https://ror.org/0116zj450,University of Indonesia,Indonesia,ID,Depok,-6.4,106.81861,8832,7191,61892,92542,1402558,1.2301416487311678,262,28885,annual_works_count,172
openalex,2026-07-19T13:12:56+00:00,overall,2021,https://openalex.org/I185163786,https://ror.org/02ma4wv74,King Abdulaziz University,Saudi Arabia,SA,Jeddah,21.49012,39.18624,8809,5893,238852,96754,5074190,4.014856295387133,540,81608,annual_works_count,173
openalex,2026-07-19T13:12:56+00:00,overall,2021,https://openalex.org/I70931966,https://ror.org/0161xgx34,Université de Montréal,Canada,CA,Montreal,45.50884,-73.58781,8792,6052,153073,176579,14274729,3.2589985727413144,915,188492,annual_works_count,174
openalex,2026-07-19T13:12:56+00:00,overall,2021,https://openalex.org/I76198965,https://ror.org/05qpz1x62,Friedrich Schiller University Jena,Germany,DE,Jena,50.92878,11.5899,8740,7727,74776,157368,5555089,1.2989168776196207,606,83659,annual_works_count,175
openalex,2026-07-19T13:12:56+00:00,overall,2021,https://openalex.org/I125749732,https://ror.org/02grkyz14,Western University,Canada,CA,London,42.98339,-81.23304,8697,5400,176322,170934,12351882,3.6689402827768607,837,175000,annual_works_count,176
openalex,2026-07-19T13:12:56+00:00,overall,2021,https://openalex.org/I17145004,https://ror.org/01y0j0j86,Northwestern Polytechnical University,China,CN,Xi'an,34.258331298828125,108.9286117553711,8648,2806,229903,138058,7510841,7.001729458133459,493,155369,annual_works_count,177
openalex,2026-07-19T13:12:56+00:00,overall,2021,https://openalex.org/I23946033,https://ror.org/05vf56z40,University of Tehran,Iran,IR,Tehran,35.703468322753906,51.395198822021484,8617,4281,147774,123838,4595412,4.1546285260230436,389,98344,annual_works_count,178
openalex,2026-07-19T13:12:56+00:00,overall,2021,https://openalex.org/I55143463,https://ror.org/048tbm396,University of Turin,Italy,IT,Turin,45.07049,7.68682,8616,6621,188474,144323,11634426,3.235053908751726,759,186543,annual_works_count,179
openalex,2026-07-19T13:12:56+00:00,overall,2021,https://openalex.org/I83519826,https://ror.org/059gcgy73,Nanjing Medical University,China,CN,Nanjing,32.061668395996094,118.77777862548828,8582,6450,165040,108703,8352116,4.064008861454566,530,173535,annual_works_count,180
openalex,2026-07-19T13:12:56+00:00,overall,2021,https://openalex.org/I21250087,https://ror.org/024d6js02,Charles University,Czechia,CZ,Prague,50.08804,14.42076,8566,6134,153571,148933,9186432,2.7786082169074118,676,164966,annual_works_count,181
openalex,2026-07-19T13:12:56+00:00,overall,2021,https://openalex.org/I20089843,https://ror.org/00hx57361,Princeton University,United States,US,Princeton,40.34872,-74.65905,8554,6503,221230,212318,27122779,7.079745942131264,1549,226966,annual_works_count,182
openalex,2026-07-19T13:12:56+00:00,overall,2021,https://openalex.org/I71267560,https://ror.org/05290cv24,University of Naples Federico II,Italy,IT,Naples,40.85216,14.26811,8546,6027,189988,151511,12331579,3.633992258777993,734,208420,annual_works_count,183
openalex,2026-07-19T13:12:56+00:00,overall,2021,https://openalex.org/I43439940,https://ror.org/01ryk1543,University of Southampton,United Kingdom,GB,Southampton,50.90395,-1.40428,8499,6361,212044,185508,13069367,3.1888958333333335,919,175683,annual_works_count,184
openalex,2026-07-19T13:12:56+00:00,overall,2021,https://openalex.org/I78650965,https://ror.org/042aqky30,Technische Universität Dresden,Germany,DE,Dresden,51.05089,13.73832,8368,6121,163583,139069,10153782,3.5991197608126426,767,146759,annual_works_count,185
openalex,2026-07-19T13:12:56+00:00,overall,2021,https://openalex.org/I188538660,https://ror.org/02ttsq026,University of Colorado Boulder,United States,US,Boulder,40.014991760253906,-105.27055358886719,8354,5897,174978,167525,18690302,3.9845901866248354,1124,191104,annual_works_count,186
openalex,2026-07-19T13:12:56+00:00,overall,2021,https://openalex.org/I91136226,https://ror.org/05krs5044,University of Sheffield,United Kingdom,GB,Sheffield,53.38297,-1.4659,8322,5989,180098,191037,15837359,3.725893885877264,983,199988,annual_works_count,187
openalex,2026-07-19T13:12:56+00:00,overall,2021,https://openalex.org/I51556381,https://ror.org/0153tk833,University of Virginia,United States,US,Charlottesville,38.02931,-78.47668,8272,5342,161914,203563,17559934,3.3105997159815024,1050,208336,annual_works_count,188
openalex,2026-07-19T13:12:56+00:00,overall,2021,https://openalex.org/I881427289,https://ror.org/01tm6cn81,University of Gothenburg,Sweden,SE,Gothenburg,57.70716,11.96679,8249,6984,179107,145345,12757020,3.5524551831644584,913,165654,annual_works_count,189
openalex,2026-07-19T13:12:56+00:00,overall,2021,https://openalex.org/I865915315,https://ror.org/008xxew50,Vrije Universiteit Amsterdam,The Netherlands,NL,Amsterdam,52.37403,4.88969,8226,7275,199537,135511,11651723,3.7363231493869473,945,136664,annual_works_count,190
openalex,2026-07-19T13:12:56+00:00,overall,2021,https://openalex.org/I181547552,https://ror.org/02pttbw34,Baylor College of Medicine,United States,US,Houston,29.76328,-95.36327,8202,5285,182712,165112,27499413,4.060609038937212,1447,236696,annual_works_count,191
openalex,2026-07-19T13:12:56+00:00,overall,2021,https://openalex.org/I180726961,https://ror.org/01vy4gh70,Shenzhen University,China,CN,Shenzhen,22.54553985595703,114.06829833984375,8176,3458,258463,95964,5902122,5.993525275898897,511,108866,annual_works_count,192
openalex,2026-07-19T13:12:56+00:00,overall,2021,https://openalex.org/I39422238,https://ror.org/02mpq6x41,University of Illinois Chicago,United States,US,Chicago,41.85003,-87.65005,8111,5080,154029,198620,17568803,3.5460653411519325,968,232683,annual_works_count,193
openalex,2026-07-19T13:12:56+00:00,overall,2021,https://openalex.org/I191208505,https://ror.org/00mcjh785,Xiamen University,China,CN,Xiamen,24.47978973388672,118.08187103271484,8056,3986,218507,119505,9578038,6.076970086505737,659,165589,annual_works_count,194
openalex,2026-07-19T13:12:56+00:00,overall,2021,https://openalex.org/I16097986,https://ror.org/043nxc105,Universitat de València,Spain,ES,Valencia,39.47391128540039,-0.3796600103378296,8048,6527,149807,130710,11314563,3.7577079071102975,782,164959,annual_works_count,195
openalex,2026-07-19T13:12:56+00:00,overall,2021,https://openalex.org/I157674565,https://ror.org/00afp2z80,University of Liège,Belgium,BE,Liège,50.633731842041016,5.567490100860596,8029,5327,95906,267598,8151728,1.9902309678319727,882,117427,annual_works_count,196
openalex,2026-07-19T13:12:56+00:00,overall,2021,https://openalex.org/I14243506,https://ror.org/0030zas98,Hong Kong Polytechnic University,Hong Kong,HK,Hong Kong,22.27832,114.17469,8012,4554,264237,153729,9350859,6.873054647177022,654,147035,annual_works_count,197
openalex,2026-07-19T13:12:56+00:00,overall,2021,https://openalex.org/I200777214,https://ror.org/04gnjpq42,National and Kapodistrian University of Athens,Greece,GR,Athens,37.983760833740234,23.727840423583984,8008,5479,183735,129644,9938007,3.636422623553585,739,164634,annual_works_count,198
openalex,2026-07-19T13:12:56+00:00,overall,2021,https://openalex.org/I52418104,https://ror.org/05syd6y78,Universidade Federal do Paraná,Brazil,BR,Curitiba,-25.427780151367188,-49.2730598449707,7973,6374,58594,108794,2571925,1.2082605204741887,348,59113,annual_works_count,199
openalex,2026-07-19T13:12:56+00:00,overall,2021,https://openalex.org/I154130895,https://ror.org/03b94tp07,University of Auckland,New Zealand,NZ,Auckland,-36.84853,174.76349,7970,4724,161124,142264,9910339,3.4762546239869994,766,135871,annual_works_count,200
openalex,2026-07-19T13:12:56+00:00,overall,2021,https://openalex.org/I27357992,https://ror.org/023hj5876,Dalian University of Technology,China,CN,Dalian,38.9122200012207,121.60221862792969,7969,2341,211117,139037,9536394,5.155046081892796,569,185653,annual_works_count,201
openalex,2026-07-19T13:12:56+00:00,overall,2021,https://openalex.org/I34352273,https://ror.org/02jz4aj89,Maastricht University,The Netherlands,NL,Maastricht,50.84833,5.68889,7958,6794,175539,128406,11362281,3.3429904535072135,846,140528,annual_works_count,202
openalex,2026-07-19T13:12:56+00:00,overall,2021,https://openalex.org/I93860229,https://ror.org/01nffqt88,Politecnico di Milano,Italy,IT,Milan,45.46427,9.18951,7924,5996,115367,256281,5790177,0.5097517589442834,529,108515,annual_works_count,203
openalex,2026-07-19T13:12:56+00:00,overall,2021,https://openalex.org/I913481162,https://ror.org/04qw24q55,Wageningen University & Research,The Netherlands,NL,Wageningen,51.97,5.66667,7905,7331,199611,125819,12402808,3.4955050143266475,931,148942,annual_works_count,204
openalex,2026-07-19T13:12:56+00:00,overall,2021,https://openalex.org/I16733864,https://ror.org/05bqach95,National Taiwan University,Taiwan,TW,Taipei,25.05306,121.52639,7882,4651,158858,171824,12784701,3.136241249326871,719,220281,annual_works_count,205
openalex,2026-07-19T13:12:56+00:00,overall,2021,https://openalex.org/I285663978,https://ror.org/02xwsbr93,Weatherford College,United States,US,Weatherford,32.74093246459961,-97.79269409179688,7845,6702,11874,162031,1740980,0.2528082952721886,367,28176,annual_works_count,206
openalex,2026-07-19T13:12:56+00:00,overall,2021,https://openalex.org/I96673099,https://ror.org/04qtj9h94,Technical University of Denmark,Denmark,DK,Kongens Lyngby,55.77043914794922,12.503780364990234,7794,6195,174980,150159,12076810,4.121217582857715,986,144206,annual_works_count,207
openalex,2026-07-19T13:12:56+00:00,overall,2021,https://openalex.org/I848706,https://ror.org/04q78tk20,Sungkyunkwan University,South Korea,KR,Seoul,37.566,126.9784,7737,4868,172106,126982,11142940,5.003986316064129,708,200427,annual_works_count,208
openalex,2026-07-19T13:12:56+00:00,overall,2021,https://openalex.org/I145608581,https://ror.org/02dgjyy92,University of Miami,United States,US,Coral Gables,25.72149,-80.26838,7717,4682,161272,169903,14051520,2.841839896815692,912,186453,annual_works_count,209
openalex,2026-07-19T13:12:56+00:00,overall,2021,https://openalex.org/I114090438,https://ror.org/04cvxnb49,Goethe University Frankfurt,Germany,DE,Frankfurt am Main,50.11552,8.68417,7717,5726,161061,168106,14849782,3.290546310011327,1006,184962,annual_works_count,209
openalex,2026-07-19T13:12:56+00:00,overall,2021,https://openalex.org/I166337079,https://ror.org/026zzn846,Queen Mary University of London,United Kingdom,GB,London,51.50853,-0.12574,7709,5771,201758,136601,13602675,4.582454669321874,982,151499,annual_works_count,211
openalex,2026-07-19T13:12:56+00:00,overall,2021,https://openalex.org/I75951250,https://ror.org/046ak2485,Freie Universität Berlin,Germany,DE,Berlin,52.52437,13.41053,7684,5914,152820,146326,9058879,3.9734259097380056,735,143552,annual_works_count,212
openalex,2026-07-19T13:12:56+00:00,overall,2021,https://openalex.org/I5681781,https://ror.org/00892tw58,The University of Adelaide,Australia,AU,Adelaide,-34.92866,138.59863,7641,4629,213571,150988,29886521,5.064515513854721,898,401134,annual_works_count,213
openalex,2026-07-19T13:12:56+00:00,overall,2021,https://openalex.org/I45084792,https://ror.org/04jr1s763,University of Florence,Italy,IT,Florence,43.77925,11.24626,7609,5771,144362,143905,10664781,2.9332763467197083,696,179478,annual_works_count,214
openalex,2026-07-19T13:12:56+00:00,overall,2021,https://openalex.org/I114017466,https://ror.org/03f0f6041,University of Technology Sydney,Australia,AU,Sydney,-33.86785,151.20732,7572,4197,212092,98798,5376432,5.472902633190447,571,82753,annual_works_count,215
openalex,2026-07-19T13:12:56+00:00,overall,2021,https://openalex.org/I129774422,https://ror.org/03prydq77,University of Vienna,Austria,AT,Vienna,48.20849,16.37208,7571,5960,123636,168417,10481841,2.4970946742976974,779,147140,annual_works_count,216
openalex,2026-07-19T13:12:56+00:00,overall,2021,https://openalex.org/I173304897,https://ror.org/04njjy449,Universidad de Granada,Spain,ES,Granada,37.18817,-3.60667,7559,6104,110332,122165,6817728,2.5367728486743535,578,117694,annual_works_count,217
openalex,2026-07-19T13:12:56+00:00,overall,2021,https://openalex.org/I126596746,https://ror.org/03bqmcz70,Jagiellonian University,Poland,PL,Krakow,50.061431884765625,19.936580657958984,7556,7162,95743,123474,5107928,2.6099770591931266,534,97800,annual_works_count,218
openalex,2026-07-19T13:12:56+00:00,overall,2021,https://openalex.org/I24354313,https://ror.org/0081fs513,Universidad de Buenos Aires,Argentina,AR,Buenos Aires,-34.61315,-58.37723,7539,6190,63702,129972,5588624,1.829465366270378,507,109513,annual_works_count,219
openalex,2026-07-19T13:12:56+00:00,overall,2021,https://openalex.org/I8087733,https://ror.org/03a1kwz48,University of Tübingen,Germany,DE,Tübingen,48.52265930175781,9.052220344543457,7500,5432,151293,153523,13034667,3.571534776144061,899,179516,annual_works_count,220
openalex,2026-07-19T13:12:56+00:00,overall,2021,https://openalex.org/I32389192,https://ror.org/008s83205,University of Alabama at Birmingham,United States,US,Birmingham,33.52066,-86.80249,7460,4985,149837,156311,16030449,2.9155492986763267,992,197149,annual_works_count,221
openalex,2026-07-19T13:12:56+00:00,overall,2021,https://openalex.org/I5124864,https://ror.org/02s376052,École Polytechnique Fédérale de Lausanne,Switzerland,CH,Lausanne,46.516,6.63282,7459,6917,186704,165436,19832980,4.996348699224098,1224,219045,annual_works_count,222
openalex,2026-07-19T13:12:56+00:00,overall,2021,https://openalex.org/I4210128276,https://ror.org/03k7bde87,Sağlık Bilimleri Üniversitesi,Türkiye,TR,Istanbul,41.01384,28.94966,7446,5510,49070,60229,770448,1.2541137111583847,166,20365,annual_works_count,223
openalex,2026-07-19T13:12:56+00:00,overall,2021,https://openalex.org/I4068193,https://ror.org/02qsmb048,University of Belgrade,Serbia,RS,Belgrade,44.80401,20.46513,7442,5650,100702,113329,5885754,2.786641447856401,494,115353,annual_works_count,224
openalex,2026-07-19T13:12:56+00:00,overall,2021,https://openalex.org/I52158045,https://ror.org/04v3ywz14,China Agricultural University,China,CN,Beijing,39.907501220703125,116.39723205566406,7433,4949,171932,98073,9000318,5.1261258363355635,572,162035,annual_works_count,225
openalex,2026-07-19T13:12:56+00:00,overall,2021,https://openalex.org/I151746483,https://ror.org/01aff2v68,University of Waterloo,Canada,CA,Waterloo,43.4668,-80.51639,7433,4217,165111,156304,9645235,4.342054916332085,770,141974,annual_works_count,225
openalex,2026-07-19T13:12:56+00:00,overall,2021,https://openalex.org/I25254941,https://ror.org/022k4wk35,Beijing Normal University,China,CN,Beijing,39.9075,116.39723,7414,4016,176153,119253,6653434,4.651783585125335,587,118736,annual_works_count,227
openalex,2026-07-19T13:12:56+00:00,overall,2021,https://openalex.org/I114457229,https://ror.org/01swzsf04,University of Geneva,Switzerland,CH,Geneva,46.20222,6.14569,7402,6243,173811,132728,15841585,4.226405134918289,1014,176967,annual_works_count,228
openalex,2026-07-19T13:12:56+00:00,overall,2021,https://openalex.org/I165690674,https://ror.org/009avj582,Oregon Health & Science University,United States,US,Portland,45.5234489440918,-122.67620849609375,7387,5356,294167,121766,12468299,2.3169444494822176,953,134968,annual_works_count,229
openalex,2026-07-19T13:12:56+00:00,overall,2021,https://openalex.org/I2279609970,https://ror.org/02kzqn938,Université de Lille,France,FR,Lille,50.63297,3.05858,7387,4390,111388,109758,5208926,2.5425741230748353,578,84604,annual_works_count,229
openalex,2026-07-19T13:12:56+00:00,overall,2021,https://openalex.org/I921990950,https://ror.org/02hh7en24,University of Colorado Denver,United States,US,Denver,39.73915100097656,-104.98470306396484,7385,4700,324269,145243,14656125,3.5623356244612903,980,168485,annual_works_count,231
openalex,2026-07-19T13:12:56+00:00,overall,2021,https://openalex.org/I205237279,https://ror.org/01y1kjr75,Nankai University,China,CN,Tianjin,39.14221954345703,117.17666625976562,7384,3639,213055,115542,10046923,6.1834729536946655,672,168934,annual_works_count,232
openalex,2026-07-19T13:12:56+00:00,overall,2021,https://openalex.org/I84884186,https://ror.org/01kj2bm70,Newcastle University,United Kingdom,GB,Newcastle upon Tyne,54.97328,-1.61396,7371,5636,173071,151232,11855557,3.633818034484311,888,150489,annual_works_count,233
openalex,2026-07-19T13:12:56+00:00,overall,2021,https://openalex.org/I4104125,https://ror.org/041akq887,Universidade Federal de Santa Catarina,Brazil,BR,Florianópolis,-27.596670150756836,-48.549171447753906,7337,5529,65972,108951,3196420,1.7772185114503818,334,71478,annual_works_count,234
openalex,2026-07-19T13:12:56+00:00,overall,2021,https://openalex.org/I862893732,https://ror.org/0004wsx81,Telkom University,Indonesia,ID,Bandung,-6.92222,107.60694,7317,5260,10609,43591,210020,0.6430649048450096,95,4861,annual_works_count,235
openalex,2026-07-19T13:12:56+00:00,overall,2021,https://openalex.org/I39343248,https://ror.org/01hcx6992,Humboldt-Universität zu Berlin,Germany,DE,Berlin,52.52436828613281,13.410530090332031,7287,5764,159456,126460,10371838,3.9437353754520315,782,145510,annual_works_count,236
openalex,2026-07-19T13:12:56+00:00,overall,2021,https://openalex.org/I107720978,https://ror.org/00cb9w016,Ain Shams University,Egypt,EG,Cairo,30.07691192626953,31.290681838989258,7286,5418,78181,88659,1946552,2.211495850892818,288,45995,annual_works_count,237
openalex,2026-07-19T13:12:56+00:00,overall,2021,https://openalex.org/I4210148414,https://ror.org/03yp20v68,Institut Agama Islam Negeri Bengkulu,Indonesia,ID,Bengkulu,-3.8004400730133057,102.26554107666016,7285,6471,24978,67197,250292,0.3023437771672984,96,5289,annual_works_count,238
openalex,2026-07-19T13:12:56+00:00,overall,2021,https://openalex.org/I23923803,https://ror.org/03yghzc09,University of Exeter,United Kingdom,GB,Exeter,50.72359848022461,-3.527509927749634,7246,5837,192065,117984,7480551,4.059573361082206,800,88841,annual_works_count,239
openalex,2026-07-19T13:12:56+00:00,overall,2021,https://openalex.org/I108290504,https://ror.org/03ad39j10,University of Pisa,Italy,IT,Pisa,43.70853,10.4036,7244,5533,150372,135932,12674346,3.9329147841733656,899,184577,annual_works_count,240
openalex,2026-07-19T13:12:56+00:00,overall,2021,https://openalex.org/I181369854,https://ror.org/00f7hpc57,Friedrich-Alexander-Universität Erlangen-Nürnberg,Germany,DE,Erlangen,49.59099,11.00783,7241,5033,148859,151877,12524893,3.908423884560288,833,185700,annual_works_count,241
openalex,2026-07-19T13:12:56+00:00,overall,2021,https://openalex.org/I859038795,https://ror.org/02smfhw86,Virginia Tech,United States,US,Blacksburg,37.22957,-80.41394,7240,4439,136951,170631,10436299,2.6036982812217966,794,162025,annual_works_count,242
openalex,2026-07-19T13:12:56+00:00,overall,2021,https://openalex.org/I135140700,https://ror.org/041nas322,University of Bonn,Germany,DE,Bonn,50.73438,7.09549,7218,5966,130807,175423,17621680,3.135972191776532,1031,217983,annual_works_count,243
openalex,2026-07-19T13:12:56+00:00,overall,2021,https://openalex.org/I149704539,https://ror.org/02czsnj07,Deakin University,Australia,AU,Burwood,-37.84978,145.11901,7171,6175,176386,95899,5771752,4.423449661059503,612,88556,annual_works_count,244
openalex,2026-07-19T13:12:56+00:00,overall,2021,https://openalex.org/I39555362,https://ror.org/01a77tt86,University of Warwick,United Kingdom,GB,Coventry,52.40656,-1.51217,7097,5248,152325,140276,9158091,3.8426552695291267,782,123353,annual_works_count,245
openalex,2026-07-19T13:12:56+00:00,overall,2021,https://openalex.org/I60134161,https://ror.org/04chrp450,Nagoya University,Japan,JP,Nagoya,35.18146896362305,136.90640258789062,7092,4757,106978,268196,14962763,1.3552167371968011,748,258921,annual_works_count,246
openalex,2026-07-19T13:12:56+00:00,overall,2021,https://openalex.org/I200719446,https://ror.org/02vm5rt34,Vanderbilt University,United States,US,Nashville,36.16589,-86.78444,7086,4636,158009,173027,19596074,3.141066476804317,1105,221437,annual_works_count,247
openalex,2026-07-19T13:12:56+00:00,overall,2021,https://openalex.org/I79510175,https://ror.org/03kk7td41,Cardiff University,United Kingdom,GB,Cardiff,51.48,-3.18,7066,5431,165063,126877,13457711,4.303322849719677,1231,127886,annual_works_count,248
openalex,2026-07-19T13:12:56+00:00,overall,2021,https://openalex.org/I126307644,https://ror.org/036jqmy94,University of Iowa,United States,US,Iowa City,41.66113,-91.53017,7065,4777,129079,192607,18895006,2.8727846616477213,995,233052,annual_works_count,249
openalex,2026-07-19T13:12:56+00:00,overall,2021,https://openalex.org/I150729083,https://ror.org/02xfp8v59,Universidade de Brasília,Brazil,BR,Brasília,-15.77972,-47.92972,7040,5478,52164,102564,2199488,1.3444693916195525,309,50892,annual_works_count,250
openalex,2026-07-19T13:12:56+00:00,overall,2021,https://openalex.org/I885383172,https://ror.org/00bw8d226,National University of Malaysia,Malaysia,MY,Bangi,2.9000000953674316,101.78333282470703,7035,5129,118241,90229,3220854,3.0965593784683683,408,64638,annual_works_count,251
openalex,2026-07-19T13:12:56+00:00,overall,2021,https://openalex.org/I58200834,https://ror.org/01vjw4z39,Southern Medical University,China,CN,Guangzhou,23.116670608520508,113.25,7029,5370,149386,87936,6274566,4.897855798657973,492,126336,annual_works_count,252
openalex,2026-07-19T13:12:56+00:00,overall,2021,https://openalex.org/I63634437,https://ror.org/01cby8j38,Universidad Autónoma de Madrid,Spain,ES,Madrid,40.4165,-3.70256,6991,5639,131688,127246,9792822,3.54874337583294,723,145618,annual_works_count,253
openalex,2026-07-19T13:12:56+00:00,overall,2021,https://openalex.org/I196829312,https://ror.org/01rxfrp27,La Trobe University,Australia,AU,Melbourne,-37.814,144.96332,6971,5443,101836,96601,4352700,2.490152855526873,534,64046,annual_works_count,254
openalex,2026-07-19T13:12:56+00:00,overall,2021,https://openalex.org/I33849332,https://ror.org/00rzspn62,University of Malaya,Malaysia,MY,Kuala Lumpur,3.1412,101.68653,6961,4508,124703,110532,5944718,3.228365156264843,599,101295,annual_works_count,255
openalex,2026-07-19T13:12:56+00:00,overall,2021,https://openalex.org/I161046081,https://ror.org/0245cg223,University of Freiburg,Germany,DE,Freiburg im Breisgau,47.99589920043945,7.852220058441162,6950,5310,150243,154192,16923224,3.53991073727577,971,212615,annual_works_count,256
openalex,2026-07-19T13:12:56+00:00,overall,2021,https://openalex.org/I157614274,https://ror.org/03p74gp79,University of Cape Town,South Africa,ZA,Rondebosch,-33.96333,18.47639,6925,5358,154853,333371,7542420,0.7844094835305625,698,105915,annual_works_count,257
openalex,2026-07-19T13:12:56+00:00,overall,2021,https://openalex.org/I99043593,https://ror.org/01sf06y89,Macquarie University,Australia,AU,Sydney,-33.86785,151.20732,6924,4203,144220,101863,5444179,3.5545498872432497,654,77179,annual_works_count,258
openalex,2026-07-19T13:12:56+00:00,overall,2021,https://openalex.org/I197347611,https://ror.org/047dqcg40,Korea University,South Korea,KR,Seoul,37.566,126.9784,6883,3946,178327,117348,9752798,5.6451923273762,651,171605,annual_works_count,259
openalex,2026-07-19T13:12:56+00:00,overall,2021,https://openalex.org/I165230279,https://ror.org/03ke6d638,Universitas Gadjah Mada,Indonesia,ID,Yogyakarta,-7.801390171051025,110.3647232055664,6883,5882,40892,77517,985547,1.142285834561145,199,24903,annual_works_count,259
openalex,2026-07-19T13:12:56+00:00,overall,2021,https://openalex.org/I180923762,https://ror.org/00rcxh774,University of Cologne,Germany,DE,Cologne,50.93333,6.95,6866,5182,121434,132911,9547903,3.0458568525626553,802,135207,annual_works_count,261
openalex,2026-07-19T13:12:56+00:00,overall,2021,https://openalex.org/I891191580,https://ror.org/04m5j1k67,Aalborg University,Denmark,DK,Aalborg,57.048,9.9187,6849,4228,112047,114130,4533781,3.199340678922515,548,73248,annual_works_count,262
openalex,2026-07-19T13:12:56+00:00,overall,2021,https://openalex.org/I177969490,https://ror.org/03yrrjy16,University of Southern Denmark,Denmark,DK,Odense,55.39594,10.38831,6813,5371,283806,92967,5537069,3.320968847589306,615,76578,annual_works_count,263
openalex,2026-07-19T13:12:56+00:00,overall,2021,https://openalex.org/I161593684,https://ror.org/05f0yaq80,Stockholm University,Sweden,SE,Stockholm,59.32938,18.06871,6775,5724,162676,130405,12539607,4.156607039815349,954,138494,annual_works_count,264
openalex,2026-07-19T13:12:56+00:00,overall,2021,https://openalex.org/I115592961,https://ror.org/03jc41j30,Jiangsu University,China,CN,Zhenjiang,32.21086120605469,119.455078125,6755,3063,210897,97042,7174239,7.025450667329337,452,146586,annual_works_count,265
openalex,2026-07-19T13:12:56+00:00,overall,2021,https://openalex.org/I168719708,https://ror.org/03q8dnn23,City University of Hong Kong,Hong Kong,HK,Hong Kong,22.2783203125,114.17469024658203,6733,2980,225177,116454,8025038,8.9722812115793,650,119016,annual_works_count,266
openalex,2026-07-19T13:12:56+00:00,overall,2021,https://openalex.org/I205349734,https://ror.org/02e16g702,Hokkaido University,Japan,JP,Sapporo,43.07817840576172,141.3399658203125,6724,4665,106191,254712,11712937,0.9875307401891171,649,224162,annual_works_count,267
openalex,2026-07-19T13:12:56+00:00,overall,2021,https://openalex.org/I130343225,https://ror.org/02e91jd64,Universiti Putra Malaysia,Malaysia,MY,Seri Kembangan,3.03333,101.71667,6715,5196,109288,85189,4434969,2.9169736159995634,470,85147,annual_works_count,268
openalex,2026-07-19T13:12:56+00:00,overall,2021,https://openalex.org/I173911158,https://ror.org/04rswrd78,Iowa State University,United States,US,Ames,42.03471,-93.61994,6696,4889,96856,196553,12698952,3.265244312828106,812,179499,annual_works_count,269
openalex,2026-07-19T13:12:56+00:00,overall,2021,https://openalex.org/I15057530,https://ror.org/057qpr032,Université de Bordeaux,France,FR,Bordeaux,44.84124,-0.58046,6693,4652,120278,122742,8349969,3.0394482955763595,688,128097,annual_works_count,270
openalex,2026-07-19T13:12:56+00:00,overall,2021,https://openalex.org/I58956616,https://ror.org/051fd9666,Case Western Reserve University,United States,US,Cleveland,41.4995,-81.69541,6676,4236,136358,171762,16890519,3.9559067383548565,1027,201829,annual_works_count,271
openalex,2026-07-19T13:12:56+00:00,overall,2021,https://openalex.org/I181343428,https://ror.org/00mv6sv71,University of Zagreb,Croatia,HR,Zagreb,45.81444,15.97798,6676,5042,87984,110454,3372315,2.158428117082637,430,69181,annual_works_count,271
openalex,2026-07-19T13:12:56+00:00,overall,2021,https://openalex.org/I97565354,https://ror.org/019whta54,University of Lausanne,Switzerland,CH,Lausanne,46.516,6.63282,6653,5452,143814,105429,9814022,3.7032116851595007,975,110315,annual_works_count,273
openalex,2026-07-19T13:12:56+00:00,overall,2021,https://openalex.org/I3045169105,https://ror.org/049tv2d57,Southern University of Science and Technology,China,CN,Shenzhen,22.54554,114.0683,6638,3226,213252,62631,4231087,7.182526148249204,540,72030,annual_works_count,274
openalex,2026-07-19T13:12:56+00:00,overall,2021,https://openalex.org/I21370196,https://ror.org/02j61yw88,Aristotle University of Thessaloniki,Greece,GR,Thessaloniki,40.64360809326172,22.93086051940918,6614,4388,100552,108907,6921886,3.4021619602879847,549,124892,annual_works_count,275
openalex,2026-07-19T13:12:56+00:00,overall,2021,https://openalex.org/I43406934,https://ror.org/04sjchr03,Université Laval,Canada,CA,Québec,46.81228,-71.21454,6609,4388,117378,129008,9481416,2.8079228034535295,760,136841,annual_works_count,276
openalex,2026-07-19T13:12:56+00:00,overall,2021,https://openalex.org/I122411786,https://ror.org/05dxps055,California Institute of Technology,United States,US,Pasadena,34.14778,-118.14452,6607,5601,165151,245160,37173385,7.9965203895161086,1856,258898,annual_works_count,277
openalex,2026-07-19T13:12:56+00:00,overall,2021,https://openalex.org/I55769427,https://ror.org/05gxnyn08,Indiana University – Purdue University Indianapolis,United States,US,Indianapolis,39.76838,-86.15804,6590,4344,140355,146040,13963632,3.9462480516588734,908,175234,annual_works_count,278
openalex,2026-07-19T13:12:56+00:00,overall,2021,https://openalex.org/I193531525,https://ror.org/00y4zzh67,George Washington University,United States,US,Washington,38.89511,-77.03637,6584,4123,108360,117861,6440948,2.8438038925843805,751,84944,annual_works_count,279
openalex,2026-07-19T13:12:56+00:00,overall,2021,https://openalex.org/I108688024,https://ror.org/021cj6z65,Qingdao University,China,CN,Qingdao,36.06488037109375,120.38041687011719,6574,3778,163438,85727,4980720,5.271030815470489,443,103366,annual_works_count,280
openalex,2026-07-19T13:12:56+00:00,overall,2021,https://openalex.org/I59553526,https://ror.org/05qghxh33,Stony Brook University,United States,US,Stony Brook,40.92565155029297,-73.14093780517578,6562,4948,113630,130636,13897451,3.7214091802664835,925,162860,annual_works_count,281
openalex,2026-07-19T13:12:56+00:00,overall,2021,https://openalex.org/I1850255,https://ror.org/02s6k3f65,University of Basel,Switzerland,CH,Basel,47.55839,7.57327,6545,5473,144959,109868,10600406,4.059526649806747,869,130903,annual_works_count,282
openalex,2026-07-19T13:12:56+00:00,overall,2021,https://openalex.org/I76214153,https://ror.org/01mkqqe32,Lanzhou University,China,CN,Lanzhou,36.057010650634766,103.8398666381836,6533,3605,150984,107667,7591403,3.9562570658318115,514,154923,annual_works_count,283
openalex,2026-07-19T13:12:56+00:00,overall,2021,https://openalex.org/I190249584,https://ror.org/054pv6659,Universität Innsbruck,Austria,AT,Innsbruck,47.26266,11.39454,6509,5605,109366,97965,7016757,2.530321214260501,711,100277,annual_works_count,284
openalex,2026-07-19T13:12:56+00:00,overall,2021,https://openalex.org/I27804330,https://ror.org/05gq02987,Brown University,United States,US,Providence,41.82399,-71.41283,6484,4268,167523,138183,14560209,3.924037512339585,1003,170776,annual_works_count,285
openalex,2026-07-19T13:12:56+00:00,overall,2021,https://openalex.org/I197323543,https://ror.org/023b0x485,Johannes Gutenberg University Mainz,Germany,DE,Mainz,49.98419,8.2791,6479,4730,161852,142262,16087636,3.8494328922495273,951,212384,annual_works_count,286
openalex,2026-07-19T13:12:56+00:00,overall,2021,https://openalex.org/I79238269,https://ror.org/03yxnpp24,Universidad de Sevilla,Spain,ES,Seville,37.38283,-5.97317,6478,5295,102198,108242,5045971,2.570341373273682,502,95255,annual_works_count,287
openalex,2026-07-19T13:12:56+00:00,overall,2021,https://openalex.org/I58048189,https://ror.org/034m2b326,Shahid Beheshti University of Medical Sciences,Iran,IR,Tehran,35.69438934326172,51.4215087890625,6437,4482,98922,70710,2629176,3.849778605212841,331,60703,annual_works_count,288
openalex,2026-07-19T13:12:56+00:00,overall,2021,https://openalex.org/I192619145,https://ror.org/03rp50x72,University of the Witwatersrand,South Africa,ZA,Johannesburg,-26.20227,28.04363,6424,4463,115846,103250,5211665,3.199972156480579,547,88602,annual_works_count,289
openalex,2026-07-19T13:12:56+00:00,overall,2021,https://openalex.org/I121797337,https://ror.org/027bh9e22,Leiden University,The Netherlands,NL,Leiden,52.15833,4.49306,6382,5372,151820,147065,11952301,4.040869777073943,870,149329,annual_works_count,290
openalex,2026-07-19T13:12:56+00:00,overall,2021,https://openalex.org/I143302722,https://ror.org/02k3smh20,University of Kentucky,United States,US,Lexington,37.98869,-84.47772,6376,4081,113432,163057,10902694,1.648109622956175,783,157645,annual_works_count,291
openalex,2026-07-19T13:12:56+00:00,overall,2021,https://openalex.org/I159247623,https://ror.org/01k8vtd75,Mansoura University,Egypt,EG,Al Mansurah,31.03636932373047,31.38068962097168,6372,4751,78694,68377,1979316,3.4807909924182416,288,45047,annual_works_count,292
openalex,2026-07-19T13:12:56+00:00,overall,2021,https://openalex.org/I205133468,https://ror.org/04ctejd88,Airlangga University,Indonesia,ID,Surabaya,-7.24917,112.75083,6372,5608,42551,61236,670302,1.0774578338916752,162,16399,annual_works_count,292
openalex,2026-07-19T13:12:56+00:00,overall,2021,https://openalex.org/I4210142661,https://ror.org/052wtvs60,Institut National de la Recherche Agronomique de Tunisie,Tunisia,TN,Aryanah,36.8287239074707,10.18348217010498,6366,2360,2090,88216,91647,0.16809815950920245,88,1720,annual_works_count,294
openalex,2026-07-19T13:12:56+00:00,overall,2021,https://openalex.org/I24603500,https://ror.org/0072zz521,University of Massachusetts Amherst,United States,US,Amherst Center,42.37537,-72.51925,6346,4363,120719,125742,11158459,4.628533942779753,893,129170,annual_works_count,295
openalex,2026-07-19T13:12:56+00:00,overall,2021,https://openalex.org/I16609230,https://ror.org/05htk5m33,Hunan University,China,CN,Changsha,28.19874,112.97087,6321,2133,222377,99803,10101721,6.804087206632345,662,153382,annual_works_count,296
openalex,2026-07-19T13:12:56+00:00,overall,2021,https://openalex.org/I74973139,https://ror.org/05x2bcf33,Carnegie Mellon University,United States,US,Pittsburgh,40.44062,-79.99589,6313,4474,132637,158854,16592468,4.126993778941952,1144,170196,annual_works_count,297
openalex,2026-07-19T13:12:56+00:00,overall,2021,https://openalex.org/I25112270,https://ror.org/047908t24,Universidade Federal de Pernambuco,Brazil,BR,Recife,-8.053890228271484,-34.88111114501953,6311,4819,43364,88845,2205510,1.2816453425804137,320,51723,annual_works_count,298
openalex,2026-07-19T13:12:56+00:00,overall,2021,https://openalex.org/I205640436,https://ror.org/02n415q13,Curtin University,Australia,AU,Perth,-31.95224,115.8614,6292,3981,139940,94537,5345746,4.142293010398841,576,84898,annual_works_count,299
openalex,2026-07-19T13:12:56+00:00,overall,2021,https://openalex.org/I25399158,https://ror.org/01znkr924,Mahidol University,Thailand,TH,Bangkok,13.75398,100.50144,6276,4993,84127,85867,4289618,2.253438507277423,473,83065,annual_works_count,300
openalex,2026-07-19T13:12:56+00:00,overall,2021,https://openalex.org/I63739035,https://ror.org/02dwcqs71,All India Institute of Medical Sciences,India,IN,New Delhi,28.62137,77.2148,6272,4174,69105,85140,3819830,1.942693188145765,452,78720,annual_works_count,301
openalex,2026-07-19T13:12:56+00:00,overall,2021,https://openalex.org/I126744593,https://ror.org/04rq5mt64,"University of Maryland, Baltimore",United States,US,Baltimore,39.29038,-76.61219,6256,4241,134610,129641,16377482,3.1326897171082173,1084,172183,annual_works_count,302
openalex,2026-07-19T13:12:56+00:00,overall,2021,https://openalex.org/I9842412,https://ror.org/01scyh794,Nanjing University of Aeronautics and Astronautics,China,CN,Nanjing,32.061668395996094,118.77777862548828,6247,1896,129730,95772,4109297,4.171672428694901,416,88888,annual_works_count,303
openalex,2026-07-19T13:12:56+00:00,overall,2021,https://openalex.org/I102893293,https://ror.org/00ypgyy34,State University of Malang,Indonesia,ID,Malang,-7.9797,112.6304,6241,5012,23679,51241,421702,0.5965263727238126,134,10459,annual_works_count,304
openalex,2026-07-19T13:12:56+00:00,overall,2021,https://openalex.org/I100930933,https://ror.org/05m7pjf47,University College Dublin,Ireland,IE,Dublin,53.33306,-6.24889,6234,4631,142284,106388,6886680,3.3908150064683054,661,96670,annual_works_count,305
openalex,2026-07-19T13:12:56+00:00,overall,2021,https://openalex.org/I75027704,https://ror.org/020f3ap87,University of Tennessee at Knoxville,United States,US,Knoxville,35.96064,-83.92074,6211,3720,126130,147872,10561577,3.1619286903988932,763,147687,annual_works_count,306
openalex,2026-07-19T13:12:56+00:00,overall,2021,https://openalex.org/I25757504,https://ror.org/01xt2dr21,China University of Mining and Technology,China,CN,Xuzhou,34.20441818237305,117.28385925292969,6198,2658,134312,92150,4556904,4.71181464073026,358,106535,annual_works_count,307
openalex,2026-07-19T13:12:56+00:00,overall,2021,https://openalex.org/I148366613,https://ror.org/00se2k293,National Yang Ming Chiao Tung University,Taiwan,TW,Hsinchu,24.80360984802246,120.96861267089844,6190,3715,107023,131310,8219246,3.2418350009439307,597,160987,annual_works_count,308
openalex,2026-07-19T13:12:56+00:00,overall,2021,https://openalex.org/I113940042,https://ror.org/006teas31,Shanghai University,China,CN,Shanghai,31.222219467163086,121.45806121826172,6150,2261,138422,100583,5149467,5.770225607127461,473,102887,annual_works_count,309
openalex,2026-07-19T13:12:56+00:00,overall,2021,https://openalex.org/I160993911,https://ror.org/03pnv4752,Queensland University of Technology,Australia,AU,Brisbane,-27.46794,153.02809,6125,3796,151154,101558,5680649,4.950623700623701,610,90654,annual_works_count,310
openalex,2026-07-19T13:12:56+00:00,overall,2021,https://openalex.org/I172901346,https://ror.org/023znxa73,St Petersburg University,Russia,RU,Saint Petersburg,59.94200134277344,30.298999786376953,6116,3672,48134,85447,2162867,1.638589344196821,385,46776,annual_works_count,311
openalex,2026-07-19T13:12:56+00:00,overall,2021,https://openalex.org/I2613432,https://ror.org/032db5x82,University of South Florida,United States,US,Tampa,27.94752,-82.45843,6090,3478,102332,130946,8033339,2.429436860068259,741,108782,annual_works_count,312
openalex,2026-07-19T13:12:56+00:00,overall,2021,https://openalex.org/I4654613,https://ror.org/039bjqg32,University of Warsaw,Poland,PL,Warsaw,52.22977,21.01178,6090,4915,59642,108972,4448870,2.2199457959605087,582,73513,annual_works_count,312
openalex,2026-07-19T13:12:56+00:00,overall,2021,https://openalex.org/I153648349,https://ror.org/04h699437,University of Leicester,United Kingdom,GB,Leicester,52.63859939575195,-1.1316900253295898,6082,5055,121739,107175,8335239,4.425975494816211,811,96201,annual_works_count,314
openalex,2026-07-19T13:12:56+00:00,overall,2021,https://openalex.org/I76134821,https://ror.org/05n3x4p02,Medical University of Vienna,Austria,AT,Vienna,48.20849,16.37208,6045,4652,165024,102828,10078508,3.644317524834002,745,147439,annual_works_count,315
openalex,2026-07-19T13:12:56+00:00,overall,2021,https://openalex.org/I44260953,https://ror.org/024z2rq82,Heinrich Heine University Düsseldorf,Germany,DE,Düsseldorf,51.22172164916992,6.776159763336182,6004,4376,152354,123736,10494301,3.8097089788404657,858,137336,annual_works_count,316
openalex,2026-07-19T13:12:56+00:00,overall,2021,https://openalex.org/I9224756,https://ror.org/03awzbc87,Northeastern University,China,CN,Shenyang,41.79222106933594,123.43277740478516,5981,1748,147454,95346,4964225,5.749563939001296,362,115652,annual_works_count,317
openalex,2026-07-19T13:12:56+00:00,overall,2021,https://openalex.org/I11701301,https://ror.org/02sc3r913,Griffith University,Australia,AU,Brisbane,-27.46794,153.02809,5980,4489,124705,98107,5469336,4.288143397467522,543,84699,annual_works_count,318
openalex,2026-07-19T13:12:56+00:00,overall,2021,https://openalex.org/I76903346,https://ror.org/04z8k9a98,University of Coimbra,Portugal,PT,Coimbra,40.20686,-8.41996,5973,4089,91952,95761,4943252,2.9414028201022675,507,86035,annual_works_count,319
openalex,2026-07-19T13:12:56+00:00,overall,2021,https://openalex.org/I92039509,https://ror.org/00zat6v61,Guangzhou Medical University,China,CN,Guangzhou,23.13623809814453,113.25353240966797,5972,4630,120225,70880,5675916,3.54312734573746,598,81726,annual_works_count,320
openalex,2026-07-19T13:12:56+00:00,overall,2021,https://openalex.org/I59028903,https://ror.org/04rdtx186,Ocean University of China,China,CN,Qingdao,36.06488037109375,120.38041687011719,5962,3492,104856,73206,4320411,4.1070194944778,393,94826,annual_works_count,321
openalex,2026-07-19T13:12:56+00:00,overall,2021,https://openalex.org/I69737025,https://ror.org/047gc3g35,University of Chile,Chile,CL,Santiago,-33.45694,-70.64827,5957,4603,84258,114393,4726182,1.010280508732819,514,85010,annual_works_count,322
openalex,2026-07-19T13:12:56+00:00,overall,2021,https://openalex.org/I88273585,https://ror.org/02k5swt12,Universidade Federal de São Paulo,Brazil,BR,São Paulo,-23.547500610351562,-46.6361083984375,5948,4266,86023,90942,4363738,1.8815374592833876,414,92617,annual_works_count,323
openalex,2026-07-19T13:12:56+00:00,overall,2021,https://openalex.org/I56067802,https://ror.org/015m7wh34,Université de Rennes,France,FR,Rennes,48.11109,-1.67431,5945,4292,70917,84628,4196344,5.022736515213132,480,74690,annual_works_count,324
openalex,2026-07-19T13:12:56+00:00,overall,2021,https://openalex.org/I82724352,https://ror.org/05n8tts92,Universiti Teknologi MARA,Malaysia,MY,Shah Alam,3.08507,101.53281,5925,4364,49444,78188,1377748,1.077995867768595,259,31470,annual_works_count,325
openalex,2026-07-19T13:12:56+00:00,overall,2021,https://openalex.org/I17866349,https://ror.org/004raaa70,Université Fédérale de Toulouse Midi-Pyrénées,France,FR,Toulouse,43.60426,1.44367,5906,4431,120239,90534,6785481,4.042409400240187,704,101657,annual_works_count,326
openalex,2026-07-19T13:12:56+00:00,overall,2021,https://openalex.org/I86987016,https://ror.org/026vcq606,KTH Royal Institute of Technology,Sweden,SE,Stockholm,59.32938,18.06871,5900,4494,122115,117093,8411126,3.8116298607777246,724,118075,annual_works_count,327
openalex,2026-07-19T13:12:56+00:00,overall,2021,https://openalex.org/I68947357,https://ror.org/00pg6eq24,Université de Strasbourg,France,FR,Strasbourg,48.58392,7.74553,5873,4037,106506,88268,7226914,3.519723727433529,663,108285,annual_works_count,328
openalex,2026-07-19T13:12:56+00:00,overall,2021,https://openalex.org/I66867065,https://ror.org/02n96ep67,East China Normal University,China,CN,Shanghai,31.222219467163086,121.45806121826172,5863,2821,144871,84914,5204850,5.0728665405064435,497,95759,annual_works_count,329
openalex,2026-07-19T13:12:56+00:00,overall,2021,https://openalex.org/I119896790,https://ror.org/021hq5q33,Sebelas Maret University,Indonesia,ID,Surakarta,-7.561408042907715,110.85578155517578,5838,5031,25186,57988,465379,0.660550068119891,130,11243,annual_works_count,330
openalex,2026-07-19T13:12:56+00:00,overall,2021,https://openalex.org/I169108374,https://ror.org/000xsnr85,University of the Basque Country,Spain,ES,Leioa,43.32686,-2.98884,5836,4616,104056,97133,5237491,2.9983457642859217,489,98655,annual_works_count,331
openalex,2026-07-19T13:12:56+00:00,overall,2021,https://openalex.org/I196699116,https://ror.org/03fe7t173,Wuhan University of Technology,China,CN,Wuhan,30.583330154418945,114.26667022705078,5825,2144,150019,98022,6197881,5.802681835702522,589,107352,annual_works_count,332
openalex,2026-07-19T13:12:56+00:00,overall,2021,https://openalex.org/I92403157,https://ror.org/02egmk993,University of Science and Technology Beijing,China,CN,Beijing,39.907501220703125,116.39723205566406,5816,1904,169229,100949,6371213,5.801905747320043,484,129312,annual_works_count,333
openalex,2026-07-19T13:12:56+00:00,overall,2021,https://openalex.org/I146399215,https://ror.org/02956yf07,University of Tsukuba,Japan,JP,Tsukuba,36.20000076293945,140.10000610351562,5803,3788,85385,136312,9363823,2.475011022641803,674,153495,annual_works_count,334
openalex,2026-07-19T13:12:56+00:00,overall,2021,https://openalex.org/I24027795,https://ror.org/04z6c2n17,University of Johannesburg,South Africa,ZA,Johannesburg,-26.20227,28.04363,5791,3541,97648,111348,1926680,3.5358362754384456,350,36772,annual_works_count,335
openalex,2026-07-19T13:12:56+00:00,overall,2021,https://openalex.org/I97188460,https://ror.org/03gnr7b55,Nantes Université,France,FR,Nantes,47.21725,-1.55336,5786,3320,73716,106520,4365111,1.6476534566352796,534,68539,annual_works_count,336
openalex,2026-07-19T13:12:56+00:00,overall,2021,https://openalex.org/I92446798,https://ror.org/03k1gpj17,Colorado State University,United States,US,Fort Collins,40.58526,-105.08442,5774,3783,109560,124481,9730007,3.186573906758222,833,130149,annual_works_count,337
openalex,2026-07-19T13:12:56+00:00,overall,2021,https://openalex.org/I904495901,https://ror.org/04tsk2644,Ruhr University Bochum,Germany,DE,Bochum,51.48165,7.21648,5759,4099,97044,121822,7567733,2.980097971933644,640,126911,annual_works_count,338
openalex,2026-07-19T13:12:56+00:00,overall,2021,https://openalex.org/I197251160,https://ror.org/03qxff017,Hebrew University of Jerusalem,Israel,IL,Jerusalem,31.76904,35.21633,5754,3656,127769,148464,11235708,2.789866774323779,845,151721,annual_works_count,339
openalex,2026-07-19T13:12:56+00:00,overall,2021,https://openalex.org/I926574661,https://ror.org/03s7gtk40,Leipzig University,Germany,DE,Leipzig,51.33962,12.37129,5735,4320,95567,128586,6372717,1.256500247819855,690,96310,annual_works_count,340
openalex,2026-07-19T13:12:56+00:00,overall,2021,https://openalex.org/I205274468,https://ror.org/02tyrky19,Trinity College Dublin,Ireland,IE,Dublin,53.33306121826172,-6.248889923095703,5728,4231,130004,96010,7854805,3.9828273022461755,856,89581,annual_works_count,341
openalex,2026-07-19T13:12:56+00:00,overall,2021,https://openalex.org/I876193797,https://ror.org/00qzypv28,Vellore Institute of Technology University,India,IN,Vellore,12.9184,79.13255,5722,2240,87333,74786,2161812,3.5859104671280275,343,45171,annual_works_count,342
openalex,2026-07-19T13:12:56+00:00,overall,2021,https://openalex.org/I686019,https://ror.org/00bas1c41,AGH University of Krakow,Poland,PL,Krakow,50.061431884765625,19.936580657958984,5714,4343,85326,78475,5016028,3.4218932424228274,519,84789,annual_works_count,343
openalex,2026-07-19T13:12:56+00:00,overall,2021,https://openalex.org/I161127581,https://ror.org/02rjhbb08,Universidade Federal Fluminense,Brazil,BR,Niterói,-22.883329391479492,-43.10361099243164,5705,4279,43110,80127,1665392,1.1855090568394753,276,39160,annual_works_count,344
openalex,2026-07-19T13:12:56+00:00,overall,2021,https://openalex.org/I139322472,https://ror.org/02rgb2k63,Universiti Sains Malaysia,Malaysia,MY,George Town,5.41123,100.33543,5695,3571,116193,79534,3743072,3.2731137379665944,454,69633,annual_works_count,345
openalex,2026-07-19T13:12:56+00:00,overall,2021,https://openalex.org/I46247651,https://ror.org/02gfys938,University of Manitoba,Canada,CA,Winnipeg,49.8844,-97.14704,5682,3677,103262,116954,7572999,2.883848378748668,639,120116,annual_works_count,346
openalex,2026-07-19T13:12:56+00:00,overall,2021,https://openalex.org/I141649914,https://ror.org/042v6xz23,Nanchang University,China,CN,Nanchang,28.6839599609375,115.85305786132812,5677,3355,124319,79138,4902071,4.793713962690786,384,107762,annual_works_count,347
openalex,2026-07-19T13:12:56+00:00,overall,2021,https://openalex.org/I154570441,https://ror.org/02t274463,"University of California, Santa Barbara",United States,US,Santa Barbara,34.42083,-119.69819,5668,4005,122411,140716,18021499,4.5886535506613235,1122,181310,annual_works_count,348
openalex,2026-07-19T13:12:56+00:00,overall,2021,https://openalex.org/I36399199,https://ror.org/00xp9wg62,Nanjing University of Science and Technology,China,CN,Nanjing,32.061668395996094,118.77777862548828,5638,1685,139551,88423,4708223,4.541154627057064,471,92199,annual_works_count,349
openalex,2026-07-19T13:12:56+00:00,overall,2021,https://openalex.org/I11855966,https://ror.org/056bjta22,Diponegoro University,Indonesia,ID,Semarang,-6.993060111999512,110.42082977294922,5638,4930,24648,67149,624811,0.8287685663120193,140,15594,annual_works_count,349
openalex,2026-07-19T13:12:56+00:00,overall,2021,https://openalex.org/I4577782,https://ror.org/03v4gjf40,Technische Universität Berlin,Germany,DE,Berlin,52.52437,13.41053,5606,3979,93316,111797,5498408,3.062369838420108,632,90693,annual_works_count,351
openalex,2026-07-19T13:12:56+00:00,overall,2021,https://openalex.org/I4576418,https://ror.org/026w31v75,University of Technology Malaysia,Malaysia,MY,Johor Bahru,1.465499997138977,103.75779724121094,5603,3503,104781,80345,3494147,2.921817902656226,435,65911,annual_works_count,352
openalex,2026-07-19T13:12:56+00:00,overall,2021,https://openalex.org/I5388228,https://ror.org/022kthw22,University of Rochester,United States,US,Rochester,43.15478,-77.61556,5599,4105,84543,146855,15870831,3.8360385383213265,1029,182403,annual_works_count,353
openalex,2026-07-19T13:12:56+00:00,overall,2021,https://openalex.org/I204722609,https://ror.org/02y72wh86,Queen's University,Canada,CA,Kingston,44.22976,-76.48098,5598,3388,250294,121239,8196389,3.1547281713344315,766,109996,annual_works_count,354
openalex,2026-07-19T13:12:56+00:00,overall,2021,https://openalex.org/I165733156,https://ror.org/00te3t702,University of Georgia,United States,US,Athens,33.9609489440918,-83.37793731689453,5597,3263,106079,141746,11901636,3.5330948625506986,865,161346,annual_works_count,355
openalex,2026-07-19T13:12:56+00:00,overall,2021,https://openalex.org/I158708052,https://ror.org/028wp3y58,Chulalongkorn University,Thailand,TH,Bangkok,13.75398,100.50144,5569,3919,89555,80664,3254976,3.0317528611995526,394,69893,annual_works_count,356
openalex,2026-07-19T13:12:56+00:00,overall,2021,https://openalex.org/I69552723,https://ror.org/00g0p6g84,University of Pretoria,South Africa,ZA,Pretoria,-25.74486,28.18783,5554,3653,80211,96466,3180476,3.2885410017804952,421,62236,annual_works_count,357
openalex,2026-07-19T13:12:56+00:00,overall,2021,https://openalex.org/I51713134,https://ror.org/03wmf1y16,University of Colorado Anschutz Medical Campus,United States,US,Aurora,39.72943115234375,-104.83191680908203,5542,4186,120565,57102,4318132,3.1473601077791455,618,59600,annual_works_count,358
openalex,2026-07-19T13:12:56+00:00,overall,2021,https://openalex.org/I131249849,https://ror.org/00ysfqy60,Oregon State University,United States,US,Corvallis,44.56457,-123.26204,5529,3928,100549,117595,8251792,2.746365856494941,809,109411,annual_works_count,359
openalex,2026-07-19T13:12:56+00:00,overall,2021,https://openalex.org/I4210118524,https://ror.org/02dn7x778,Université Bourgogne Franche-Comté,France,FR,Besançon,47.24878,6.01815,5525,4186,70125,40176,3822169,7.654425417784196,549,46844,annual_works_count,360
openalex,2026-07-19T13:12:56+00:00,overall,2021,https://openalex.org/I177909021,https://ror.org/00qdc6m37,Universidade Federal de São Carlos,Brazil,BR,São Carlos,-22.017499923706055,-47.890830993652344,5523,4119,53296,83178,2504966,1.9501583655285233,295,59266,annual_works_count,361
openalex,2026-07-19T13:12:56+00:00,overall,2021,https://openalex.org/I179331831,https://ror.org/014g1a453,Taif University,Saudi Arabia,SA,Ta'if,21.270280838012695,40.415828704833984,5514,4072,132892,32141,772671,5.020200089211751,190,19593,annual_works_count,362
openalex,2026-07-19T13:12:56+00:00,overall,2021,https://openalex.org/I129801699,https://ror.org/01nfmeh72,University of Tasmania,Australia,AU,Hobart,-42.87936,147.32941,5510,4766,84670,75864,4357671,3.4013689819919146,551,68233,annual_works_count,363
openalex,2026-07-19T13:12:56+00:00,overall,2021,https://openalex.org/I149213910,https://ror.org/008x57b05,University of Antwerp,Belgium,BE,Antwerp,51.22272872924805,4.408430099487305,5506,4148,142011,95765,9212181,7.727091235775604,831,126345,annual_works_count,364
openalex,2026-07-19T13:12:56+00:00,overall,2021,https://openalex.org/I153976015,https://ror.org/05njb9z20,University of Ljubljana,Slovenia,SI,Ljubljana,46.05107879638672,14.50512981414795,5500,4309,92823,93627,4958948,2.915546417839633,518,83619,annual_works_count,365
openalex,2026-07-19T13:12:56+00:00,overall,2021,https://openalex.org/I134560555,https://ror.org/02v6kpv12,Université Toulouse III - Paul Sabatier,France,FR,Toulouse,43.60426,1.44367,5486,4087,105396,107898,9335973,4.348449612403101,748,131322,annual_works_count,366
openalex,2026-07-19T13:12:56+00:00,overall,2021,https://openalex.org/I78037679,https://ror.org/00wge5k78,UiT The Arctic University of Norway,Norway,NO,Tromsø,69.6489,18.95508,5466,5115,63503,61714,4212006,1.5657925820930783,645,45227,annual_works_count,367
openalex,2026-07-19T13:12:56+00:00,overall,2021,https://openalex.org/I118501908,https://ror.org/055f7t516,National Research University Higher School of Economics,Russia,RU,Moscow,55.75204,37.61781,5443,3247,49349,64921,792530,1.6876368586139552,243,15023,annual_works_count,368
openalex,2026-07-19T13:12:56+00:00,overall,2021,https://openalex.org/I142108993,https://ror.org/01kj4z117,Southwest University,China,CN,Chongqing,29.560260772705078,106.55770874023438,5441,2881,112647,81610,4748501,4.184764190906524,433,100970,annual_works_count,369
openalex,2026-07-19T13:12:56+00:00,overall,2021,https://openalex.org/I83816512,https://ror.org/0107c5v14,University of Genoa,Italy,IT,Genoa,44.40478,8.94439,5424,3982,113001,101365,7638264,3.500528381642512,664,120466,annual_works_count,370
openalex,2026-07-19T13:12:56+00:00,overall,2021,https://openalex.org/I159948400,https://ror.org/02xe5ns62,Jinan University,China,CN,Guangzhou,23.116670608520508,113.25,5423,2657,162102,71584,4923448,6.409428273222776,438,100092,annual_works_count,371
openalex,2026-07-19T13:12:56+00:00,overall,2021,https://openalex.org/I87780372,https://ror.org/017z00e58,Chongqing Medical University,China,CN,Chongqing,29.56026,106.55771,5419,4191,92614,74980,4566374,3.3804158462791345,396,101240,annual_works_count,372
openalex,2026-07-19T13:12:56+00:00,overall,2021,https://openalex.org/I89652312,https://ror.org/0051rme32,Northwest A&F University,China,CN,Yangling,34.271728515625,108.07891082763672,5401,3036,148062,63519,6415016,6.0064432791523785,431,129652,annual_works_count,373
openalex,2026-07-19T13:12:56+00:00,overall,2021,https://openalex.org/I129902397,https://ror.org/01e6qks80,Dalhousie University,Canada,CA,Halifax,44.64269,-63.57688,5396,3559,103378,107733,7277843,3.1396279506018447,705,101259,annual_works_count,374
openalex,2026-07-19T13:12:56+00:00,overall,2021,https://openalex.org/I22465464,https://ror.org/00pd74e08,University of Münster,Germany,DE,Münster,51.96236,7.62571,5390,3663,99298,124814,9199635,3.5985967926689577,718,133112,annual_works_count,375
openalex,2026-07-19T13:12:56+00:00,overall,2021,https://openalex.org/I36243813,https://ror.org/059yx9a68,Universidad Nacional de Colombia,Colombia,CO,Bogotá,4.609710216522217,-74.08174896240234,5385,4296,38158,98335,1444488,1.6413689905229636,298,31851,annual_works_count,376
openalex,2026-07-19T13:12:56+00:00,overall,2021,https://openalex.org/I913958620,https://ror.org/057w15z03,Erasmus University Rotterdam,The Netherlands,NL,Rotterdam,51.9225,4.47917,5333,4499,112663,119075,12418982,3.215794649215015,958,136933,annual_works_count,377
openalex,2026-07-19T13:12:56+00:00,overall,2021,https://openalex.org/I72951846,https://ror.org/05dk0ce17,Washington State University,United States,US,Pullman,46.73127,-117.17962,5325,3875,84730,108044,7648726,2.1629831431976845,724,103334,annual_works_count,378
openalex,2026-07-19T13:12:56+00:00,overall,2021,https://openalex.org/I149594827,https://ror.org/05s92vm98,Xidian University,China,CN,Xi'an,34.258331298828125,108.9286117553711,5322,1486,113448,84555,3709773,3.730726448190297,381,80935,annual_works_count,379
openalex,2026-07-19T13:12:56+00:00,overall,2021,https://openalex.org/I161106909,https://ror.org/03w04rv71,Iran University of Medical Sciences,Iran,IR,Tehran,35.69439,51.42151,5317,3736,79801,53711,1810247,3.7607625211029827,329,37633,annual_works_count,380
openalex,2026-07-19T13:12:56+00:00,overall,2021,https://openalex.org/I63190737,https://ror.org/01y64my43,"University at Buffalo, State University of New York",United States,US,Buffalo,42.88645,-78.87837,5316,3151,99613,141603,11389509,2.818382121498269,863,155465,annual_works_count,381
